{"type":"FeatureCollection","features":[{"type":"Feature","properties":{"nombre":"N\u00facleo Educativo de Nivel Inicial 88 Extensi\u00f3n 711","tipo":"kindergarten","ciudad":"Puerto Iguaz\u00fa","operador":"public"},"geometry":{"type":"Point","coordinates":[-54.56022,-25.62825]}},{"type":"Feature","properties":{"nombre":"N\u00facleo Educativo de Nivel Inicial 88 Extensi\u00f3n 722","tipo":"kindergarten","ciudad":"Puerto Iguaz\u00fa","operador":"public"},"geometry":{"type":"Point","coordinates":[-54.56119,-25.62118]}},{"type":"Feature","properties":{"nombre":"Escuela 722","tipo":"school","ciudad":"Puerto Iguaz\u00fa","operador":"public"},"geometry":{"type":"Point","coordinates":[-54.56087,-25.62134]}},{"type":"Feature","properties":{"nombre":"Escuela 711","tipo":"school","ciudad":"Puerto Iguaz\u00fa","operador":"public"},"geometry":{"type":"Point","coordinates":[-54.56037,-25.62802]}},{"type":"Feature","properties":{"nombre":"Escuela Intercultural Biling\u00fce 2","tipo":"school","ciudad":"Puerto Iguaz\u00fa","operador":"public"},"geometry":{"type":"Point","coordinates":[-54.57377,-25.62295]}},{"type":"Feature","properties":{"nombre":"N\u00facleo Educativo de Nivel Inicial 82 Extensi\u00f3n 8001 EIB N\u00ba 2","tipo":"kindergarten","ciudad":"Puerto Iguaz\u00fa","operador":"public"},"geometry":{"type":"Point","coordinates":[-54.57388,-25.62325]}},{"type":"Feature","properties":{"nombre":"Escuela 807","tipo":"school","ciudad":"Puerto Iguaz\u00fa","operador":"public"},"geometry":{"type":"Point","coordinates":[-54.56923,-25.62763]}},{"type":"Feature","properties":{"nombre":"N\u00facleo Educativo de Nivel Inicial 23","tipo":"kindergarten","ciudad":"Puerto Iguaz\u00fa"},"geometry":{"type":"Point","coordinates":[-54.57533,-25.63524]}},{"type":"Feature","properties":{"nombre":"Escuela 947","tipo":"school","ciudad":"Puerto Iguaz\u00fa","operador":"public"},"geometry":{"type":"Point","coordinates":[-54.58437,-25.63291]}},{"type":"Feature","properties":{"nombre":"N\u00facleo Educativo de Nivel Inicial N\u00ba 88","tipo":"kindergarten","ciudad":"Puerto Iguaz\u00fa"},"geometry":{"type":"Point","coordinates":[-54.58403,-25.63286]}},{"type":"Feature","properties":{"nombre":"N\u00facleo Educativo de Nivel Inicial 88 Extensi\u00f3n 947","tipo":"kindergarten","ciudad":"Puerto Iguaz\u00fa","operador":"public"},"geometry":{"type":"Point","coordinates":[-54.58384,-25.63272]}},{"type":"Feature","properties":{"nombre":"Escuela 875","tipo":"school","ciudad":"Puerto Iguaz\u00fa","operador":"public"},"geometry":{"type":"Point","coordinates":[-54.58424,-25.62916]}},{"type":"Feature","properties":{"nombre":"Bachillerato Orientado 106","tipo":"school","ciudad":"Puerto Iguaz\u00fa","operador":"public"},"geometry":{"type":"Point","coordinates":[-54.58353,-25.62713]}},{"type":"Feature","properties":{"nombre":"Jard\u00edn Materno Infantil 1 Madre Teresa de Calcuta","tipo":"kindergarten","ciudad":"Puerto Iguaz\u00fa"},"geometry":{"type":"Point","coordinates":[-54.58306,-25.6284]}},{"type":"Feature","properties":{"nombre":"Centro de Educaci\u00f3n Musical N\u00ba 1 Sat\u00e9lite 3 Escuela 875","tipo":"school","ciudad":"Puerto Iguaz\u00fa","operador":"public"},"geometry":{"type":"Point","coordinates":[-54.58408,-25.62871]}},{"type":"Feature","properties":{"nombre":"N\u00facleo Educativo de Nivel Inicial 81","tipo":"kindergarten","ciudad":"Puerto Iguaz\u00fa","operador":"public"},"geometry":{"type":"Point","coordinates":[-54.58417,-25.62904]}},{"type":"Feature","properties":{"nombre":"Escuela 778","tipo":"school","ciudad":"Puerto Iguaz\u00fa","operador":"public"},"geometry":{"type":"Point","coordinates":[-54.59017,-25.62113]}},{"type":"Feature","properties":{"nombre":"Escuela para Adultos 38","tipo":"school","ciudad":"Puerto Iguaz\u00fa","operador":"public"},"geometry":{"type":"Point","coordinates":[-54.59063,-25.62126]}},{"type":"Feature","properties":{"nombre":"N\u00facleo Educativo de Nivel Inicial 82 Extensi\u00f3n 778","tipo":"kindergarten","ciudad":"Puerto Iguaz\u00fa","operador":"public"},"geometry":{"type":"Point","coordinates":[-54.59016,-25.62092]}},{"type":"Feature","properties":{"nombre":"N\u00facleo Educativo de Nivel Inicial 82","tipo":"kindergarten","ciudad":"Puerto Iguaz\u00fa","operador":"public"},"geometry":{"type":"Point","coordinates":[-54.58983,-25.62043]}},{"type":"Feature","properties":{"nombre":"Bachillerato Orientado 89","tipo":"school","ciudad":"Puerto Iguaz\u00fa","operador":"public"},"geometry":{"type":"Point","coordinates":[-54.58946,-25.61979]}},{"type":"Feature","properties":{"nombre":"Escuela Especial 27","tipo":"school","ciudad":"Puerto Iguaz\u00fa","operador":"public"},"geometry":{"type":"Point","coordinates":[-54.58925,-25.62025]}},{"type":"Feature","properties":{"nombre":"N\u00facleo Educativo de Nivel Inicial 23 Sat\u00e9lite 2 Hogar de D\u00eda","tipo":"kindergarten","ciudad":"Puerto Iguaz\u00fa","operador":"public"},"geometry":{"type":"Point","coordinates":[-54.59003,-25.60184]}},{"type":"Feature","properties":{"nombre":"Escuela 164 Aula Sat\u00e9lite","tipo":"school","ciudad":"Puerto Iguaz\u00fa","operador":"public"},"geometry":{"type":"Point","coordinates":[-54.58986,-25.60171]}},{"type":"Feature","properties":{"nombre":"Escuela para Adultos 40","tipo":"school","ciudad":"Puerto Iguaz\u00fa","operador":"public"},"geometry":{"type":"Point","coordinates":[-54.58784,-25.601]}},{"type":"Feature","properties":{"nombre":"Escuela 164","tipo":"school","ciudad":"Puerto Iguaz\u00fa","operador":"public"},"geometry":{"type":"Point","coordinates":[-54.58797,-25.60134]}},{"type":"Feature","properties":{"nombre":"N\u00facleo Educativo de Nivel Inicial 23 Extensi\u00f3n 164","tipo":"kindergarten","ciudad":"Puerto Iguaz\u00fa","operador":"public"},"geometry":{"type":"Point","coordinates":[-54.58746,-25.60125]}},{"type":"Feature","properties":{"nombre":"1515 Tres Fronteras","tipo":"school","ciudad":"PRESIDENTE FRANCO"},"geometry":{"type":"Point","coordinates":[-54.60228,-25.58678]}},{"type":"Feature","properties":{"nombre":"Tres Fronteras","tipo":"school","ciudad":"PRESIDENTE FRANCO"},"geometry":{"type":"Point","coordinates":[-54.60223,-25.58679]}},{"type":"Feature","properties":{"nombre":"San Rafael","tipo":"school","ciudad":"PRESIDENTE FRANCO"},"geometry":{"type":"Point","coordinates":[-54.62017,-25.56646]}},{"type":"Feature","properties":{"nombre":"Eco Manantial Arandu","tipo":"school","ciudad":"PRESIDENTE FRANCO"},"geometry":{"type":"Point","coordinates":[-54.62102,-25.55868]}},{"type":"Feature","properties":{"nombre":"3684 Mariano Bobadilla","tipo":"school","ciudad":"PRESIDENTE FRANCO"},"geometry":{"type":"Point","coordinates":[-54.62118,-25.55718]}},{"type":"Feature","properties":{"nombre":"E.M.D Doctor Raul Pe\u00f1a","tipo":"school","ciudad":"PRESIDENTE FRANCO"},"geometry":{"type":"Point","coordinates":[-54.61349,-25.55448]}},{"type":"Feature","properties":{"nombre":"Daniel Santa Cruz","tipo":"school","ciudad":"PRESIDENTE FRANCO"},"geometry":{"type":"Point","coordinates":[-54.60603,-25.55371]}},{"type":"Feature","properties":{"nombre":"Centro Educacional Sagrados Corazones","tipo":"school","ciudad":"PRESIDENTE FRANCO"},"geometry":{"type":"Point","coordinates":[-54.60436,-25.55777]}},{"type":"Feature","properties":{"nombre":"Sagrados Corazones","tipo":"school","ciudad":"PRESIDENTE FRANCO"},"geometry":{"type":"Point","coordinates":[-54.60464,-25.55791]}},{"type":"Feature","properties":{"nombre":"Melquisedec","tipo":"school","ciudad":"PRESIDENTE FRANCO"},"geometry":{"type":"Point","coordinates":[-54.60628,-25.56368]}},{"type":"Feature","properties":{"nombre":"Venus la Coiffure","tipo":"school","ciudad":"PRESIDENTE FRANCO"},"geometry":{"type":"Point","coordinates":[-54.60616,-25.56509]}},{"type":"Feature","properties":{"nombre":"school sin nombre (PRESIDENTE FRANCO)","tipo":"school","ciudad":"PRESIDENTE FRANCO"},"geometry":{"type":"Point","coordinates":[-54.61073,-25.56832]}},{"type":"Feature","properties":{"nombre":"Escuela B\u00e1sica N\u00ba 30 Dr. Mois\u00e9s Santiago Bertoni","tipo":"school","ciudad":"PRESIDENTE FRANCO"},"geometry":{"type":"Point","coordinates":[-54.61061,-25.56829]}},{"type":"Feature","properties":{"nombre":"Doctor Moises Santiago Bertoni","tipo":"school","ciudad":"PRESIDENTE FRANCO"},"geometry":{"type":"Point","coordinates":[-54.61092,-25.56948]}},{"type":"Feature","properties":{"nombre":"Colegio Nacional San Roque","tipo":"school","ciudad":"PRESIDENTE FRANCO"},"geometry":{"type":"Point","coordinates":[-54.60232,-25.56692]}},{"type":"Feature","properties":{"nombre":"San Roque Gonzalez de Santa Cruz","tipo":"school","ciudad":"PRESIDENTE FRANCO"},"geometry":{"type":"Point","coordinates":[-54.60237,-25.56724]}},{"type":"Feature","properties":{"nombre":"Paraguay - Brasil","tipo":"school","ciudad":"PRESIDENTE FRANCO"},"geometry":{"type":"Point","coordinates":[-54.60097,-25.5562]}},{"type":"Feature","properties":{"nombre":"Colegio Nacional Paraguay Brasil","tipo":"school","ciudad":"PRESIDENTE FRANCO"},"geometry":{"type":"Point","coordinates":[-54.601,-25.55586]}},{"type":"Feature","properties":{"nombre":"San Francisco de Asis","tipo":"school","ciudad":"PRESIDENTE FRANCO"},"geometry":{"type":"Point","coordinates":[-54.60126,-25.57211]}},{"type":"Feature","properties":{"nombre":"Escola Municipal Ac\u00e1cio Pedroso","tipo":"school","ciudad":"Foz do Igua\u00e7u"},"geometry":{"type":"Point","coordinates":[-54.58528,-25.57859]}},{"type":"Feature","properties":{"nombre":"Escola Municipal Vin\u00edcius de Moraes","tipo":"school","ciudad":"Foz do Igua\u00e7u"},"geometry":{"type":"Point","coordinates":[-54.57928,-25.57905]}},{"type":"Feature","properties":{"nombre":"Centro Municipal de Educa\u00e7\u00e3o Infantil Ozires Santos","tipo":"school","ciudad":"Foz do Igua\u00e7u"},"geometry":{"type":"Point","coordinates":[-54.57344,-25.58195]}},{"type":"Feature","properties":{"nombre":"Centro Escola Bairro Francisco Bubas","tipo":"school","ciudad":"Foz do Igua\u00e7u"},"geometry":{"type":"Point","coordinates":[-54.57464,-25.58177]}},{"type":"Feature","properties":{"nombre":"Centro Municipal de Educa\u00e7\u00e3o Infantil Rosa Cirilo de Castro","tipo":"school","ciudad":"Foz do Igua\u00e7u"},"geometry":{"type":"Point","coordinates":[-54.57665,-25.57478]}},{"type":"Feature","properties":{"nombre":"Col\u00e9gio Estadual Juscelino Kubitschek de Oliveira","tipo":"school","ciudad":"Foz do Igua\u00e7u"},"geometry":{"type":"Point","coordinates":[-54.57103,-25.57654]}},{"type":"Feature","properties":{"nombre":"Centro Municipal de Educa\u00e7\u00e3o Infantil Professora Vanderli Bertacchini Moreira","tipo":"school","ciudad":"Foz do Igua\u00e7u"},"geometry":{"type":"Point","coordinates":[-54.56977,-25.57453]}},{"type":"Feature","properties":{"nombre":"Escola Municipal Adele Zanotto Scalco","tipo":"school","ciudad":"Foz do Igua\u00e7u"},"geometry":{"type":"Point","coordinates":[-54.57011,-25.57385]}},{"type":"Feature","properties":{"nombre":"CETEA - Centro TEA de Foz do Igua\u00e7u","tipo":"school","ciudad":"Foz do Igua\u00e7u"},"geometry":{"type":"Point","coordinates":[-54.56959,-25.57385]}},{"type":"Feature","properties":{"nombre":"Escola Municipal Cec\u00edlia Meireles","tipo":"school","ciudad":"Foz do Igua\u00e7u"},"geometry":{"type":"Point","coordinates":[-54.57426,-25.57073]}},{"type":"Feature","properties":{"nombre":"Centro Municipal de Educa\u00e7\u00e3o Infantil Mam\u00e3e Agenora","tipo":"school","ciudad":"Foz do Igua\u00e7u"},"geometry":{"type":"Point","coordinates":[-54.57918,-25.57609]}},{"type":"Feature","properties":{"nombre":"Col\u00e9gio Estadual Tr\u00eas Fronteiras","tipo":"school","ciudad":"Foz do Igua\u00e7u"},"geometry":{"type":"Point","coordinates":[-54.5829,-25.5761]}},{"type":"Feature","properties":{"nombre":"Centro Municipal de Educa\u00e7\u00e3o Infantil Soldadinho de Chumbo","tipo":"school","ciudad":"Foz do Igua\u00e7u"},"geometry":{"type":"Point","coordinates":[-54.58526,-25.57737]}},{"type":"Feature","properties":{"nombre":"Escola Municipal Vila Shalon","tipo":"school","ciudad":"Foz do Igua\u00e7u"},"geometry":{"type":"Point","coordinates":[-54.58241,-25.56711]}},{"type":"Feature","properties":{"nombre":"Centro Estadual de Educa\u00e7\u00e3o Profissional Manoel Moreira Pena","tipo":"school","ciudad":"Foz do Igua\u00e7u"},"geometry":{"type":"Point","coordinates":[-54.58057,-25.5569]}},{"type":"Feature","properties":{"nombre":"Col\u00e9gio Estadual Almirante Tamandar\u00e9","tipo":"school","ciudad":"Foz do Igua\u00e7u"},"geometry":{"type":"Point","coordinates":[-54.57243,-25.55335]}},{"type":"Feature","properties":{"nombre":"Escola Municipal Professora L\u00facia Marlene P. Nieradka","tipo":"school","ciudad":"Foz do Igua\u00e7u"},"geometry":{"type":"Point","coordinates":[-54.56978,-25.55585]}},{"type":"Feature","properties":{"nombre":"Centro Municipal de Educa\u00e7\u00e3o Infantil Ariano Vilar Suassuna","tipo":"school","ciudad":"Foz do Igua\u00e7u"},"geometry":{"type":"Point","coordinates":[-54.57489,-25.5671]}},{"type":"Feature","properties":{"nombre":"Centro Municipal de Educa\u00e7\u00e3o Infantil Ouro Verde","tipo":"school","ciudad":"Foz do Igua\u00e7u"},"geometry":{"type":"Point","coordinates":[-54.57655,-25.5682]}},{"type":"Feature","properties":{"nombre":"Escola Municipal Presidente Get\u00falio Vargas","tipo":"school","ciudad":"Foz do Igua\u00e7u"},"geometry":{"type":"Point","coordinates":[-54.5673,-25.56561]}},{"type":"Feature","properties":{"nombre":"Centro Municipal de Educa\u00e7\u00e3o Infantil Elfrida Keller","tipo":"school","ciudad":"Foz do Igua\u00e7u"},"geometry":{"type":"Point","coordinates":[-54.56809,-25.56188]}},{"type":"Feature","properties":{"nombre":"Col\u00e9gio Estadual Tarqu\u00ednio Santos","tipo":"school","ciudad":"Foz do Igua\u00e7u"},"geometry":{"type":"Point","coordinates":[-54.56391,-25.55385]}},{"type":"Feature","properties":{"nombre":"school sin nombre","tipo":"school"},"geometry":{"type":"Point","coordinates":[-54.56391,-25.55382]}},{"type":"Feature","properties":{"nombre":"Col\u00e9gio Estadual Gustavo Dobrandino da Silva","tipo":"school","ciudad":"Foz do Igua\u00e7u"},"geometry":{"type":"Point","coordinates":[-54.56463,-25.56991]}},{"type":"Feature","properties":{"nombre":"Instituto Argentino De Estudios Superiores","tipo":"school","ciudad":"Puerto Iguaz\u00fa","operador":"private"},"geometry":{"type":"Point","coordinates":[-54.56788,-25.59827]}},{"type":"Feature","properties":{"nombre":"Complejo Educativo Sagrada Familia","tipo":"school","ciudad":"Puerto Iguaz\u00fa","operador":"private"},"geometry":{"type":"Point","coordinates":[-54.56779,-25.59921]}},{"type":"Feature","properties":{"nombre":"Crecer","tipo":"school","ciudad":"Puerto Iguaz\u00fa","operador":"private"},"geometry":{"type":"Point","coordinates":[-54.5687,-25.59503]}},{"type":"Feature","properties":{"nombre":"Escuela 615","tipo":"school","ciudad":"Puerto Iguaz\u00fa","operador":"public"},"geometry":{"type":"Point","coordinates":[-54.57801,-25.59635]}},{"type":"Feature","properties":{"nombre":"Instituto Centro Integral Cocomiel","tipo":"kindergarten","ciudad":"Puerto Iguaz\u00fa","operador":"private"},"geometry":{"type":"Point","coordinates":[-54.58183,-25.59817]}},{"type":"Feature","properties":{"nombre":"Instituto Centro Integral Ceo","tipo":"school","ciudad":"Puerto Iguaz\u00fa","operador":"private"},"geometry":{"type":"Point","coordinates":[-54.58178,-25.59819]}},{"type":"Feature","properties":{"nombre":"Escuela Hospitalaria 3","tipo":"school","ciudad":"Puerto Iguaz\u00fa"},"geometry":{"type":"Point","coordinates":[-54.57376,-25.6014]}},{"type":"Feature","properties":{"nombre":"Escuela 462","tipo":"school","ciudad":"Puerto Iguaz\u00fa","operador":"public"},"geometry":{"type":"Point","coordinates":[-54.57395,-25.59956]}},{"type":"Feature","properties":{"nombre":"N\u00facleo Educativo de Nivel Inicial 23 Sat\u00e9lite 1 Marta Schwartz","tipo":"kindergarten","ciudad":"Puerto Iguaz\u00fa","operador":"public"},"geometry":{"type":"Point","coordinates":[-54.57479,-25.60035]}},{"type":"Feature","properties":{"nombre":"Escuela de Educaci\u00f3n T\u00e9cnica 4","tipo":"school","ciudad":"Puerto Iguaz\u00fa","operador":"public"},"geometry":{"type":"Point","coordinates":[-54.57669,-25.5982]}},{"type":"Feature","properties":{"nombre":"Escuela para Adultos 11","tipo":"school","ciudad":"Puerto Iguaz\u00fa","operador":"public"},"geometry":{"type":"Point","coordinates":[-54.57756,-25.59633]}},{"type":"Feature","properties":{"nombre":"Instrituto Primario 901 Nuestra Se\u00f1ora del Carmen \"Parroquial\"","tipo":"school","ciudad":"Puerto Iguaz\u00fa","operador":"private"},"geometry":{"type":"Point","coordinates":[-54.57712,-25.59587]}},{"type":"Feature","properties":{"nombre":"Instituto Mariano W. Pachecoy","tipo":"school","ciudad":"Puerto Iguaz\u00fa","operador":"private"},"geometry":{"type":"Point","coordinates":[-54.57281,-25.60331]}},{"type":"Feature","properties":{"nombre":"Instituto San Lucas","tipo":"school","ciudad":"Puerto Iguaz\u00fa","operador":"private"},"geometry":{"type":"Point","coordinates":[-54.5727,-25.60336]}},{"type":"Feature","properties":{"nombre":"Colegio Angloamericano Argentino","tipo":"school","ciudad":"Puerto Iguaz\u00fa","operador":"private"},"geometry":{"type":"Point","coordinates":[-54.57058,-25.60324]}},{"type":"Feature","properties":{"nombre":"N\u00facleo Educativo de Nivel Inicial 23 Sede 200","tipo":"kindergarten","ciudad":"Puerto Iguaz\u00fa","operador":"public"},"geometry":{"type":"Point","coordinates":[-54.57873,-25.60729]}},{"type":"Feature","properties":{"nombre":"kindergarten sin nombre","tipo":"kindergarten"},"geometry":{"type":"Point","coordinates":[-54.57868,-25.60721]}},{"type":"Feature","properties":{"nombre":"Escuela 200","tipo":"school","ciudad":"Puerto Iguaz\u00fa","operador":"public"},"geometry":{"type":"Point","coordinates":[-54.5793,-25.60713]}},{"type":"Feature","properties":{"nombre":"Instituto San Francisco de As\u00eds","tipo":"school","ciudad":"Puerto Iguaz\u00fa","operador":"private"},"geometry":{"type":"Point","coordinates":[-54.58433,-25.60584]}},{"type":"Feature","properties":{"nombre":"Instituto Adventista Andr\u00e9s Guacurar\u00ed N\u00ba 0902","tipo":"college","ciudad":"Puerto Iguaz\u00fa","operador":"private"},"geometry":{"type":"Point","coordinates":[-54.5812,-25.61207]}},{"type":"Feature","properties":{"nombre":"Escuela 694","tipo":"school","ciudad":"Iguaz\u00fa","operador":"public"},"geometry":{"type":"Point","coordinates":[-54.58059,-25.61528]}},{"type":"Feature","properties":{"nombre":"N\u00facleo Educativo de Nivel Inicial 82 Extensi\u00f3n 694","tipo":"kindergarten","ciudad":"Puerto Iguaz\u00fa","operador":"public"},"geometry":{"type":"Point","coordinates":[-54.58099,-25.61513]}},{"type":"Feature","properties":{"nombre":"Instituto Nuestra Se\u00f1ora de Bel\u00e9n","tipo":"kindergarten","ciudad":"Puerto Iguaz\u00fa","operador":"private"},"geometry":{"type":"Point","coordinates":[-54.58351,-25.6142]}},{"type":"Feature","properties":{"nombre":"Escuela 837","tipo":"school","ciudad":"Puerto Iguazu","operador":"public"},"geometry":{"type":"Point","coordinates":[-54.58475,-25.61443]}},{"type":"Feature","properties":{"nombre":"N\u00facleo Educativo de Nivel Inicial 82 Extensi\u00f3n 837","tipo":"kindergarten","ciudad":"Puerto Iguazu","operador":"public"},"geometry":{"type":"Point","coordinates":[-54.58497,-25.61484]}},{"type":"Feature","properties":{"nombre":"Instituto Nuestra Se\u00f1ora de Bel\u00e9n","tipo":"school","ciudad":"Puerto Iguaz\u00fa","operador":"private"},"geometry":{"type":"Point","coordinates":[-54.58229,-25.61454]}},{"type":"Feature","properties":{"nombre":"N\u00facleo Educativo de Nivel Inicial 82 Extensi\u00f3n 818","tipo":"kindergarten","ciudad":"Puerto Iguaz\u00fa","operador":"public"},"geometry":{"type":"Point","coordinates":[-54.57685,-25.62093]}},{"type":"Feature","properties":{"nombre":"Escuela 818","tipo":"school","ciudad":"Puerto Iguaz\u00fa","operador":"public"},"geometry":{"type":"Point","coordinates":[-54.57659,-25.62075]}},{"type":"Feature","properties":{"nombre":"Instituto Esperanza","tipo":"school","ciudad":"Puerto Iguaz\u00fa","operador":"private"},"geometry":{"type":"Point","coordinates":[-54.5775,-25.61877]}},{"type":"Feature","properties":{"nombre":"Bachillerato Orientado 23","tipo":"school","ciudad":"Puerto Iguaz\u00fa","operador":"public"},"geometry":{"type":"Point","coordinates":[-54.57337,-25.61306]}},{"type":"Feature","properties":{"nombre":"Escuela de Comercio 16","tipo":"school","ciudad":"Puerto Iguaz\u00fa","operador":"public"},"geometry":{"type":"Point","coordinates":[-54.57288,-25.61298]}},{"type":"Feature","properties":{"nombre":"Escuela 746","tipo":"school","ciudad":"Puerto Iguazu","operador":"public"},"geometry":{"type":"Point","coordinates":[-54.56628,-25.61247]}},{"type":"Feature","properties":{"nombre":"N\u00facleo Educativo de Nivel Inicial 82 Extensi\u00f3n 746","tipo":"kindergarten","ciudad":"Puerto Iguazu","operador":"public"},"geometry":{"type":"Point","coordinates":[-54.56649,-25.61267]}},{"type":"Feature","properties":{"nombre":"Escuela Normal Superior 8","tipo":"school","ciudad":"Puerto Iguaz\u00fa","operador":"public"},"geometry":{"type":"Point","coordinates":[-54.56649,-25.61154]}},{"type":"Feature","properties":{"nombre":"Escuela 412","tipo":"school","ciudad":"Puerto Iguaz\u00fa","operador":"public"},"geometry":{"type":"Point","coordinates":[-54.5683,-25.60621]}},{"type":"Feature","properties":{"nombre":"Centro de Formaci\u00f3n Profesional 11","tipo":"school","ciudad":"Puerto Iguaz\u00fa","operador":"public"},"geometry":{"type":"Point","coordinates":[-54.56415,-25.6101]}},{"type":"Feature","properties":{"nombre":"Escuela 867","tipo":"school","ciudad":"Puerto Iguaz\u00fa","operador":"public"},"geometry":{"type":"Point","coordinates":[-54.55254,-25.61556]}},{"type":"Feature","properties":{"nombre":"Instituto Superior Ind\u00edgena Ra\u00fal Kara\u00ed Correa","tipo":"college","ciudad":"Parque Nacional Iguaz\u00fa","operador":"public"},"geometry":{"type":"Point","coordinates":[-54.5526,-25.6157]}},{"type":"Feature","properties":{"nombre":"Bachillerato Orientado 117","tipo":"school","ciudad":"Puerto Iguaz\u00fa","operador":"public"},"geometry":{"type":"Point","coordinates":[-54.55279,-25.61554]}},{"type":"Feature","properties":{"nombre":"college sin nombre","tipo":"college"},"geometry":{"type":"Point","coordinates":[-54.55824,-25.61423]}},{"type":"Feature","properties":{"nombre":"Instituto Tecnol\u00f3gico Iguaz\u00fa","tipo":"college","ciudad":"Puerto Iguaz\u00fa","operador":"private"},"geometry":{"type":"Point","coordinates":[-54.5583,-25.61429]}},{"type":"Feature","properties":{"nombre":"Centro Municipal de Educa\u00e7\u00e3o Infantil Professora Elaine Bernardes Ribeiro","tipo":"kindergarten","ciudad":"Foz do Igua\u00e7u"},"geometry":{"type":"Point","coordinates":[-54.54979,-25.58066]}},{"type":"Feature","properties":{"nombre":"Centro Municipal de Educa\u00e7\u00e3o Infantil Professora Elaine Bernardes Ribeiro","tipo":"kindergarten","ciudad":"Foz do Igua\u00e7u"},"geometry":{"type":"Point","coordinates":[-54.54981,-25.58052]}},{"type":"Feature","properties":{"nombre":"Col\u00e9gio Semeador","tipo":"school"},"geometry":{"type":"Point","coordinates":[-54.54969,-25.55472]}},{"type":"Feature","properties":{"nombre":"N\u00facleo Educativo de Nivel Inicial 38 Extensi\u00f3n 673","tipo":"kindergarten","ciudad":"Colonia Delicia","operador":"public"},"geometry":{"type":"Point","coordinates":[-54.59111,-26.17423]}},{"type":"Feature","properties":{"nombre":"Escuela 673","tipo":"school","ciudad":"Colonia Delicia","operador":"public"},"geometry":{"type":"Point","coordinates":[-54.59074,-26.17453]}},{"type":"Feature","properties":{"nombre":"Centro Educativo Polimodal 52","tipo":"school","ciudad":"Colonia Delicia","operador":"public"},"geometry":{"type":"Point","coordinates":[-54.59029,-26.17453]}},{"type":"Feature","properties":{"nombre":"Escuela 956","tipo":"school","ciudad":"Colonia Delicia","operador":"public"},"geometry":{"type":"Point","coordinates":[-54.58783,-26.20412]}},{"type":"Feature","properties":{"nombre":"N\u00facleo Educativo de Nivel Inicial 38 Extensi\u00f3n 956","tipo":"school","ciudad":"Colonia Delicia","operador":"public"},"geometry":{"type":"Point","coordinates":[-54.58803,-26.2042]}},{"type":"Feature","properties":{"nombre":"Aula Sat\u00e9lite 2 Escuela 956","tipo":"school","ciudad":"Colonia Delicia","operador":"public"},"geometry":{"type":"Point","coordinates":[-54.59065,-26.20925]}},{"type":"Feature","properties":{"nombre":"Instituto de Ense\u00f1anza Agropecuaria 11","tipo":"school","ciudad":"Colonia Delicia","operador":"public"},"geometry":{"type":"Point","coordinates":[-54.61688,-26.23116]}},{"type":"Feature","properties":{"nombre":"Escuela para Adultos 72","tipo":"school","ciudad":"Puerto Mado","operador":"public"},"geometry":{"type":"Point","coordinates":[-54.6059,-26.23673]}},{"type":"Feature","properties":{"nombre":"Escuela Especial 59 Aula Sat\u00e9lite 1","tipo":"school","ciudad":"Puerto Mado","operador":"public"},"geometry":{"type":"Point","coordinates":[-54.6058,-26.23644]}},{"type":"Feature","properties":{"nombre":"N\u00facleo Educativo de Nivel Inicial 38 Extensi\u00f3n 929","tipo":"kindergarten","ciudad":"Colonia Delicia","operador":"public"},"geometry":{"type":"Point","coordinates":[-54.60553,-26.23632]}},{"type":"Feature","properties":{"nombre":"Escuela 929","tipo":"school","ciudad":"Colonia Delicia","operador":"public"},"geometry":{"type":"Point","coordinates":[-54.60555,-26.2366]}},{"type":"Feature","properties":{"nombre":"Bachillerato Orientado 28","tipo":"school","ciudad":"Colonia Delicia","operador":"public"},"geometry":{"type":"Point","coordinates":[-54.59982,-26.23633]}},{"type":"Feature","properties":{"nombre":"Instituto de Ense\u00f1anza Agropecuaria 11","tipo":"school"},"geometry":{"type":"Point","coordinates":[-54.59736,-26.23675]}},{"type":"Feature","properties":{"nombre":"Escuela 283","tipo":"school","ciudad":"Colonia Delicia","operador":"public"},"geometry":{"type":"Point","coordinates":[-54.60381,-26.2308]}},{"type":"Feature","properties":{"nombre":"N\u00facleo Educativo de Nivel Inicial 38","tipo":"kindergarten","ciudad":"Colonia Delicia","operador":"public"},"geometry":{"type":"Point","coordinates":[-54.60359,-26.23062]}},{"type":"Feature","properties":{"nombre":"N\u00facleo Educativo de Nivel Inicial 38 Extensi\u00f3n 506","tipo":"kindergarten","ciudad":"Colonia Delicia","operador":"public"},"geometry":{"type":"Point","coordinates":[-54.59059,-26.24334]}},{"type":"Feature","properties":{"nombre":"Escuela 506","tipo":"school","ciudad":"Colonia Delicia","operador":"public"},"geometry":{"type":"Point","coordinates":[-54.59038,-26.24311]}},{"type":"Feature","properties":{"nombre":"Escuela 956 Sat\u00e9lite 1 Ysyry","tipo":"school","ciudad":"Puerto Mado","operador":"public"},"geometry":{"type":"Point","coordinates":[-54.60321,-26.24575]}},{"type":"Feature","properties":{"nombre":"Escuela 39","tipo":"school","ciudad":"Colonia Victoria","operador":"public"},"geometry":{"type":"Point","coordinates":[-54.61395,-26.28113]}},{"type":"Feature","properties":{"nombre":"N\u00facleo Educativo de Nivel Inicial 38 Extensi\u00f3n 39","tipo":"kindergarten","ciudad":"Colonia Victoria","operador":"public"},"geometry":{"type":"Point","coordinates":[-54.61406,-26.28145]}},{"type":"Feature","properties":{"nombre":"Instituto de Ense\u00f1anza Agropecuaria 5","tipo":"school","ciudad":"Colonia Victoria","operador":"public"},"geometry":{"type":"Point","coordinates":[-54.61427,-26.28209]}},{"type":"Feature","properties":{"nombre":"Centro de Capacitaci\u00f3n para operarios de cosecha Forestal y Vial","tipo":"college"},"geometry":{"type":"Point","coordinates":[-54.61521,-26.31124]}},{"type":"Feature","properties":{"nombre":"Bachillerato Orientado 48","tipo":"school","ciudad":"Colonia Victoria","operador":"public"},"geometry":{"type":"Point","coordinates":[-54.62046,-26.33177]}},{"type":"Feature","properties":{"nombre":"Escuela Especial 65","tipo":"school","ciudad":"El Alc\u00e1zar","operador":"public"},"geometry":{"type":"Point","coordinates":[-54.81377,-26.71022]}},{"type":"Feature","properties":{"nombre":"Escuela de Folklore Raices Nuevas","tipo":"school"},"geometry":{"type":"Point","coordinates":[-54.81972,-26.69801]}},{"type":"Feature","properties":{"nombre":"Escuela de Educaci\u00f3n T\u00e9cnica 27","tipo":"school","ciudad":"El Alcaz\u00e1r","operador":"public"},"geometry":{"type":"Point","coordinates":[-54.81631,-26.69722]}},{"type":"Feature","properties":{"nombre":"Escuela 276","tipo":"school","ciudad":"El Alcaz\u00e1r","operador":"public"},"geometry":{"type":"Point","coordinates":[-54.81664,-26.69727]}},{"type":"Feature","properties":{"nombre":"N\u00facleo Educativo de Nivel Inicial 146 Extensi\u00f3n 276","tipo":"kindergarten","ciudad":"El Alcaz\u00e1r","operador":"public"},"geometry":{"type":"Point","coordinates":[-54.81648,-26.69732]}},{"type":"Feature","properties":{"nombre":"Centro de Formaci\u00f3n Profesional 5","tipo":"school","ciudad":"El Alc\u00e1zar"},"geometry":{"type":"Point","coordinates":[-54.81667,-26.69749]}},{"type":"Feature","properties":{"nombre":"Escuela para Adultos 35","tipo":"school","ciudad":"El Alc\u00e1zar","operador":"public"},"geometry":{"type":"Point","coordinates":[-54.81699,-26.69752]}},{"type":"Feature","properties":{"nombre":"Instituto Aborigen Hogar Perut\u00ed","tipo":"school","ciudad":"El Alcazar","operador":"private"},"geometry":{"type":"Point","coordinates":[-54.79644,-26.67182]}},{"type":"Feature","properties":{"nombre":"school sin nombre (SAN RAFAEL DEL PARAN\u00c1)","tipo":"school","ciudad":"SAN RAFAEL DEL PARAN\u00c1"},"geometry":{"type":"Point","coordinates":[-54.93335,-26.65816]}},{"type":"Feature","properties":{"nombre":"school sin nombre (NATALIO)","tipo":"school","ciudad":"NATALIO"},"geometry":{"type":"Point","coordinates":[-55.13745,-26.7602]}},{"type":"Feature","properties":{"nombre":"Colegio Nacional Domingo Robledo","tipo":"school","ciudad":"NATALIO"},"geometry":{"type":"Point","coordinates":[-55.13755,-26.76006]}},{"type":"Feature","properties":{"nombre":"Escuela 913","tipo":"school","ciudad":"Puerto Rico","operador":"public"},"geometry":{"type":"Point","coordinates":[-55.05488,-26.81535]}},{"type":"Feature","properties":{"nombre":"N\u00facleo Educativo de Nivel Inicial 75 Extensi\u00f3n 486","tipo":"kindergarten","ciudad":"Puerto Rico","operador":"public"},"geometry":{"type":"Point","coordinates":[-55.0469,-26.81977]}},{"type":"Feature","properties":{"nombre":"Escuela 486","tipo":"school","ciudad":"Puerto Rico","operador":"public"},"geometry":{"type":"Point","coordinates":[-55.04707,-26.81958]}},{"type":"Feature","properties":{"nombre":"Unidad de Gesti\u00f3n Local 13 Extensi\u00f3n 486","tipo":"school","ciudad":"Puerto Rico","operador":"public"},"geometry":{"type":"Point","coordinates":[-55.04718,-26.81943]}},{"type":"Feature","properties":{"nombre":"Instituto Intercultural Biling\u00fce Padre Jos\u00e9 Marx Sat\u00e9lite 4","tipo":"school"},"geometry":{"type":"Point","coordinates":[-55.12721,-26.88844]}},{"type":"Feature","properties":{"nombre":"Escuela 189","tipo":"school","ciudad":"Puerto Rico","operador":"public"},"geometry":{"type":"Point","coordinates":[-55.10815,-26.8738]}},{"type":"Feature","properties":{"nombre":"Unidad de Gesti\u00f3n Local 13 Extensi\u00f3n 189","tipo":"school","ciudad":"Puerto Rico","operador":"public"},"geometry":{"type":"Point","coordinates":[-55.10821,-26.87392]}},{"type":"Feature","properties":{"nombre":"Escuela de Educaci\u00f3n T\u00e9cnica 10","tipo":"school","ciudad":"Puerto Rico","operador":"public"},"geometry":{"type":"Point","coordinates":[-55.02907,-26.81682]}},{"type":"Feature","properties":{"nombre":"Centro de Formaci\u00f3n Profesional 10","tipo":"school","ciudad":"Puerto Rico"},"geometry":{"type":"Point","coordinates":[-55.02872,-26.81692]}},{"type":"Feature","properties":{"nombre":"Centro de Educaci\u00f3n F\u00edsica Especial 3 Puerto Rico","tipo":"school","ciudad":"Puerto Rico","operador":"public"},"geometry":{"type":"Point","coordinates":[-55.02787,-26.81756]}},{"type":"Feature","properties":{"nombre":"Instituto San Alberto Magno","tipo":"school","ciudad":"Puerto Rico","operador":"private"},"geometry":{"type":"Point","coordinates":[-55.02594,-26.81794]}},{"type":"Feature","properties":{"nombre":"Escuela San Alberto Magno","tipo":"school","ciudad":"Puerto Rico","operador":"public"},"geometry":{"type":"Point","coordinates":[-55.02554,-26.81708]}},{"type":"Feature","properties":{"nombre":"Centro de Educaci\u00f3n F\u00edsica 9","tipo":"school","ciudad":"Puerto Rico","operador":"public"},"geometry":{"type":"Point","coordinates":[-55.02344,-26.81184]}},{"type":"Feature","properties":{"nombre":"Escuela Normal Superior 3","tipo":"school","ciudad":"Puerto Rico","operador":"public"},"geometry":{"type":"Point","coordinates":[-55.02394,-26.8112]}},{"type":"Feature","properties":{"nombre":"Escuela 126","tipo":"school","ciudad":"Puerto Rico","operador":"public"},"geometry":{"type":"Point","coordinates":[-55.02966,-26.806]}},{"type":"Feature","properties":{"nombre":"N\u00facleo Educativo de Nivel Inicial 75","tipo":"kindergarten","ciudad":"Puerto Rico","operador":"public"},"geometry":{"type":"Point","coordinates":[-55.02907,-26.80624]}},{"type":"Feature","properties":{"nombre":"Instituto Argentino de Estudios Superiores","tipo":"school","ciudad":"Puerto Rico","operador":"private"},"geometry":{"type":"Point","coordinates":[-55.02627,-26.80928]}},{"type":"Feature","properties":{"nombre":"Polo Educativo Puerto Rico","tipo":"school"},"geometry":{"type":"Point","coordinates":[-55.02209,-26.80551]}},{"type":"Feature","properties":{"nombre":"N\u00facleo Educativo de Nivel Inicial 75 Extensi\u00f3n 114","tipo":"kindergarten","ciudad":"Puerto Rico"},"geometry":{"type":"Point","coordinates":[-55.02205,-26.8029]}},{"type":"Feature","properties":{"nombre":"Escuela 114","tipo":"school","ciudad":"Puerto Rico"},"geometry":{"type":"Point","coordinates":[-55.02171,-26.80304]}},{"type":"Feature","properties":{"nombre":"Escuela para Adultos 55","tipo":"school","ciudad":"Puerto Rico","operador":"public"},"geometry":{"type":"Point","coordinates":[-55.0217,-26.80273]}},{"type":"Feature","properties":{"nombre":"Escuela Especial 8","tipo":"school","ciudad":"Puerto Rico","operador":"public"},"geometry":{"type":"Point","coordinates":[-55.02645,-26.80069]}},{"type":"Feature","properties":{"nombre":"Escuela Taller Provincial de T\u00edteres","tipo":"school","ciudad":"Puerto Rico"},"geometry":{"type":"Point","coordinates":[-55.02297,-26.79887]}},{"type":"Feature","properties":{"nombre":"Centro Modelo de Atenci\u00f3n a la Diversidad Misiones","tipo":"school","ciudad":"Puerto Rico","operador":"private"},"geometry":{"type":"Point","coordinates":[-55.02129,-26.79958]}},{"type":"Feature","properties":{"nombre":"Instituto de Ense\u00f1anza Agropecuaria 18","tipo":"school","ciudad":"Puerto Rico","operador":"public"},"geometry":{"type":"Point","coordinates":[-55.00518,-26.80688]}},{"type":"Feature","properties":{"nombre":"Instituto Parroquial Adolfo Kolping","tipo":"school","ciudad":"Puerto Rico","operador":"private"},"geometry":{"type":"Point","coordinates":[-55.02127,-26.80427]}},{"type":"Feature","properties":{"nombre":"Escuela 177","tipo":"school","ciudad":"Puerto Rico"},"geometry":{"type":"Point","coordinates":[-55.02016,-26.80628]}},{"type":"Feature","properties":{"nombre":"N\u00facleo Educativo de Nivel Inicial 75 Extensi\u00f3n 177","tipo":"kindergarten","ciudad":"Puerto Rico"},"geometry":{"type":"Point","coordinates":[-55.02049,-26.80601]}},{"type":"Feature","properties":{"nombre":"Instituto Adventista Bernardino Rivadavia","tipo":"school","ciudad":"Puerto Rico","operador":"private"},"geometry":{"type":"Point","coordinates":[-55.018,-26.80959]}},{"type":"Feature","properties":{"nombre":"Juan Pablo II","tipo":"school","ciudad":"Puerto Rico","operador":"private"},"geometry":{"type":"Point","coordinates":[-55.02033,-26.81559]}},{"type":"Feature","properties":{"nombre":"IAes Nivel Inicial y Primario","tipo":"school","ciudad":"Puerto Rico"},"geometry":{"type":"Point","coordinates":[-55.00955,-26.81118]}},{"type":"Feature","properties":{"nombre":"Escuela Especial 63","tipo":"school","ciudad":"Puerto Rico","operador":"public"},"geometry":{"type":"Point","coordinates":[-54.9971,-26.80338]}},{"type":"Feature","properties":{"nombre":"Espacio de Primera Infancia Crecer Unidos","tipo":"school","ciudad":"Puerto Rico"},"geometry":{"type":"Point","coordinates":[-54.99794,-26.80368]}},{"type":"Feature","properties":{"nombre":"N\u00facleo Educativo de Nivel Inicial 75 Extensi\u00f3n 228","tipo":"kindergarten","ciudad":"Puerto Rico","operador":"public"},"geometry":{"type":"Point","coordinates":[-54.99829,-26.80449]}},{"type":"Feature","properties":{"nombre":"Escuela 228","tipo":"school","ciudad":"Puerto Rico","operador":"public"},"geometry":{"type":"Point","coordinates":[-54.99781,-26.80456]}},{"type":"Feature","properties":{"nombre":"Escuela 222","tipo":"school","ciudad":"Puerto Rico","operador":"public"},"geometry":{"type":"Point","coordinates":[-54.99088,-26.82417]}},{"type":"Feature","properties":{"nombre":"Unidad de Gesti\u00f3n Local 13 Extenci\u00f3n 222","tipo":"school","ciudad":"Mbopic\u00faa","operador":"public"},"geometry":{"type":"Point","coordinates":[-54.99113,-26.82418]}},{"type":"Feature","properties":{"nombre":"N\u00facleo Educativo de Nivel Inicial 75 Extensi\u00f3n 222","tipo":"kindergarten","ciudad":"Puerto Rico","operador":"public"},"geometry":{"type":"Point","coordinates":[-54.99125,-26.82438]}},{"type":"Feature","properties":{"nombre":"N\u00facleo Educativo de Nivel Inicial 12 Extensi\u00f3n 231","tipo":"kindergarten","ciudad":"Capiov\u00ed","operador":"public"},"geometry":{"type":"Point","coordinates":[-55.12576,-26.92434]}},{"type":"Feature","properties":{"nombre":"Escuela Provincial 648 Sat\u00e9lite 1","tipo":"school","ciudad":"Puerto Leoni","operador":"public"},"geometry":{"type":"Point","coordinates":[-55.12903,-26.95414]}},{"type":"Feature","properties":{"nombre":"Unidad de Gesti\u00f3n Local 13 Extensi\u00f3n 231","tipo":"school","ciudad":"San Gotardo","operador":"public"},"geometry":{"type":"Point","coordinates":[-55.12603,-26.92416]}},{"type":"Feature","properties":{"nombre":"Escuela 231","tipo":"school","ciudad":"San Gotardo","operador":"public"},"geometry":{"type":"Point","coordinates":[-55.12601,-26.92398]}},{"type":"Feature","properties":{"nombre":"Centro Educativo Polimodal 48","tipo":"school","ciudad":"Puerto Leoni","operador":"public"},"geometry":{"type":"Point","coordinates":[-55.16536,-26.98837]}},{"type":"Feature","properties":{"nombre":"Escuela 247","tipo":"school","ciudad":"Puerto Leoni","operador":"public"},"geometry":{"type":"Point","coordinates":[-55.16455,-26.98435]}},{"type":"Feature","properties":{"nombre":"Escuela para Adultos 77","tipo":"school","ciudad":"Puerto Leoni","operador":"public"},"geometry":{"type":"Point","coordinates":[-55.16442,-26.98425]}},{"type":"Feature","properties":{"nombre":"N\u00facleo Educativo de Nivel Inicial 145 Extensi\u00f3n 247","tipo":"kindergarten","ciudad":"Puerto Leoni","operador":"public"},"geometry":{"type":"Point","coordinates":[-55.16424,-26.98445]}},{"type":"Feature","properties":{"nombre":"Bachillerato Orientado 25","tipo":"school","ciudad":"Puerto Leoni","operador":"public"},"geometry":{"type":"Point","coordinates":[-55.16505,-26.98838]}},{"type":"Feature","properties":{"nombre":"Colegio Nacional San Jorge","tipo":"school","ciudad":"MARIANO ROQUE ALONSO"},"geometry":{"type":"Point","coordinates":[-57.54917,-25.23054]}},{"type":"Feature","properties":{"nombre":"Colegio Nacional San Jorge","tipo":"school","ciudad":"MARIANO ROQUE ALONSO"},"geometry":{"type":"Point","coordinates":[-57.54895,-25.23047]}},{"type":"Feature","properties":{"nombre":"Escuela Basica Marangatu Raper","tipo":"school","ciudad":"ASUNCI\u00d3N"},"geometry":{"type":"Point","coordinates":[-57.58097,-25.23988]}},{"type":"Feature","properties":{"nombre":"Escuela Municipal Marangatu Rape","tipo":"school","ciudad":"ASUNCI\u00d3N"},"geometry":{"type":"Point","coordinates":[-57.58106,-25.23982]}},{"type":"Feature","properties":{"nombre":"Escuela Basica Marangatu Raper","tipo":"school","ciudad":"ASUNCI\u00d3N"},"geometry":{"type":"Point","coordinates":[-57.58121,-25.23985]}},{"type":"Feature","properties":{"nombre":"Escuela Municipal Marangatu Rape","tipo":"school","ciudad":"ASUNCI\u00d3N"},"geometry":{"type":"Point","coordinates":[-57.58107,-25.23969]}},{"type":"Feature","properties":{"nombre":"Escuela Fray Bartolom\u00e9 De Las Casas","tipo":"school","ciudad":"ASUNCI\u00d3N"},"geometry":{"type":"Point","coordinates":[-57.58162,-25.24342]}},{"type":"Feature","properties":{"nombre":"Madre teresa de Calcuta","tipo":"school","ciudad":"MARIANO ROQUE ALONSO"},"geometry":{"type":"Point","coordinates":[-57.54949,-25.20681]}},{"type":"Feature","properties":{"nombre":"2928 Madre Teresa de Calcuta","tipo":"school","ciudad":"MARIANO ROQUE ALONSO"},"geometry":{"type":"Point","coordinates":[-57.54935,-25.20719]}},{"type":"Feature","properties":{"nombre":"Colegio San Miguel Garicoits","tipo":"school","ciudad":"MARIANO ROQUE ALONSO"},"geometry":{"type":"Point","coordinates":[-57.55124,-25.19772]}},{"type":"Feature","properties":{"nombre":"Colegio San Miguel Garicoits","tipo":"school","ciudad":"MARIANO ROQUE ALONSO"},"geometry":{"type":"Point","coordinates":[-57.55096,-25.19763]}},{"type":"Feature","properties":{"nombre":"Colegio San Miguel Garico\u00efts","tipo":"school","ciudad":"MARIANO ROQUE ALONSO"},"geometry":{"type":"Point","coordinates":[-57.55101,-25.19795]}},{"type":"Feature","properties":{"nombre":"Colegio San Miguel Garicoits","tipo":"school","ciudad":"MARIANO ROQUE ALONSO"},"geometry":{"type":"Point","coordinates":[-57.55061,-25.19811]}},{"type":"Feature","properties":{"nombre":"4733 (13104) San Miguel Garicoits","tipo":"school","ciudad":"MARIANO ROQUE ALONSO"},"geometry":{"type":"Point","coordinates":[-57.55058,-25.19835]}},{"type":"Feature","properties":{"nombre":"Don Jorge Gayoso","tipo":"school","ciudad":"VILLA HAYES"},"geometry":{"type":"Point","coordinates":[-57.55286,-25.15304]}},{"type":"Feature","properties":{"nombre":"San Jorge","tipo":"school","ciudad":"VILLA HAYES"},"geometry":{"type":"Point","coordinates":[-57.55175,-25.14511]}},{"type":"Feature","properties":{"nombre":"Universidad San Carlos","tipo":"university","ciudad":"Benjamin Aceval - Costa Guasu"},"geometry":{"type":"Point","coordinates":[-57.55691,-25.02212]}},{"type":"Feature","properties":{"nombre":"Don Buenaventura Ayala Amarilla","tipo":"school","ciudad":"Costa Guasu"},"geometry":{"type":"Point","coordinates":[-57.55651,-25.02879]}},{"type":"Feature","properties":{"nombre":"Colegio Don Buenaventura Ayala Amarilla","tipo":"school","ciudad":"BENJAM\u00cdN ACEVAL"},"geometry":{"type":"Point","coordinates":[-57.55651,-25.02858]}},{"type":"Feature","properties":{"nombre":"Escuela Roa Benitez","tipo":"school","ciudad":"BENJAM\u00cdN ACEVAL"},"geometry":{"type":"Point","coordinates":[-57.55058,-25.03664]}},{"type":"Feature","properties":{"nombre":"Abraham Lyncoln","tipo":"school","ciudad":"LIMPIO"},"geometry":{"type":"Point","coordinates":[-57.4845,-25.13768]}},{"type":"Feature","properties":{"nombre":"5571 (15410) Nuestra Se\u00f1ora de la Asuncion","tipo":"school","ciudad":"LIMPIO"},"geometry":{"type":"Point","coordinates":[-57.4846,-25.13773]}},{"type":"Feature","properties":{"nombre":"5633 (15248) Santa Rosa","tipo":"school","ciudad":"LIMPIO"},"geometry":{"type":"Point","coordinates":[-57.47665,-25.13319]}},{"type":"Feature","properties":{"nombre":"6064 Arami Mburucuya","tipo":"school","ciudad":"LIMPIO"},"geometry":{"type":"Point","coordinates":[-57.47871,-25.12947]}},{"type":"Feature","properties":{"nombre":"school sin nombre (LIMPIO)","tipo":"school","ciudad":"LIMPIO"},"geometry":{"type":"Point","coordinates":[-57.48689,-25.10577]}},{"type":"Feature","properties":{"nombre":"Escuela Obreros Unidos","tipo":"school","ciudad":"LIMPIO"},"geometry":{"type":"Point","coordinates":[-57.48693,-25.10568]}},{"type":"Feature","properties":{"nombre":"Escuela Subvencionada Virgen de la Victoria","tipo":"school","ciudad":"VILLA HAYES"},"geometry":{"type":"Point","coordinates":[-57.52672,-25.08763]}},{"type":"Feature","properties":{"nombre":"Colegio Privado Subvencionado Manuel Molinas","tipo":"school","ciudad":"VILLA HAYES"},"geometry":{"type":"Point","coordinates":[-57.5216,-25.09041]}},{"type":"Feature","properties":{"nombre":"Centro Educacional Evangelico Menonita","tipo":"school","ciudad":"VILLA HAYES"},"geometry":{"type":"Point","coordinates":[-57.51705,-25.09158]}},{"type":"Feature","properties":{"nombre":"Universidad Metropolitana de Asunci\u00f3n","tipo":"university","ciudad":"VILLA HAYES"},"geometry":{"type":"Point","coordinates":[-57.51797,-25.09123]}},{"type":"Feature","properties":{"nombre":"Marangatu","tipo":"school","ciudad":"VILLA HAYES"},"geometry":{"type":"Point","coordinates":[-57.51778,-25.09125]}},{"type":"Feature","properties":{"nombre":"Colegio Raul Pe\u00f1a","tipo":"school","ciudad":"VILLA HAYES"},"geometry":{"type":"Point","coordinates":[-57.52434,-25.09583]}},{"type":"Feature","properties":{"nombre":"Doctor Blas Garay","tipo":"school","ciudad":"VILLA HAYES"},"geometry":{"type":"Point","coordinates":[-57.52223,-25.0971]}},{"type":"Feature","properties":{"nombre":"university sin nombre (VILLA HAYES)","tipo":"university","ciudad":"VILLA HAYES"},"geometry":{"type":"Point","coordinates":[-57.52002,-25.09872]}},{"type":"Feature","properties":{"nombre":"Escuela Municipal N\u00ba","tipo":"school","ciudad":"VILLA HAYES"},"geometry":{"type":"Point","coordinates":[-57.5213,-25.09613]}},{"type":"Feature","properties":{"nombre":"Ruterford B. Hayes","tipo":"school","ciudad":"VILLA HAYES"},"geometry":{"type":"Point","coordinates":[-57.52275,-25.09677]}},{"type":"Feature","properties":{"nombre":"Uninorte","tipo":"university","ciudad":"VILLA HAYES"},"geometry":{"type":"Point","coordinates":[-57.51943,-25.09445]}},{"type":"Feature","properties":{"nombre":"UNICHACO","tipo":"school","ciudad":"VILLA HAYES"},"geometry":{"type":"Point","coordinates":[-57.53443,-25.09397]}},{"type":"Feature","properties":{"nombre":"Escuela especial","tipo":"school","ciudad":"VILLA HAYES"},"geometry":{"type":"Point","coordinates":[-57.5356,-25.09008]}},{"type":"Feature","properties":{"nombre":"Escuela Defensores del Chaco","tipo":"school","ciudad":"VILLA HAYES"},"geometry":{"type":"Point","coordinates":[-57.53437,-25.08991]}},{"type":"Feature","properties":{"nombre":"Colegio Tecnico Defensores del Chaco","tipo":"school","ciudad":"VILLA HAYES"},"geometry":{"type":"Point","coordinates":[-57.53503,-25.08945]}},{"type":"Feature","properties":{"nombre":"Augusto Roa Bastos","tipo":"school","ciudad":"VILLA HAYES"},"geometry":{"type":"Point","coordinates":[-57.52774,-25.08484]}},{"type":"Feature","properties":{"nombre":"457 Profesora Magna de Martinez","tipo":"school","ciudad":"LIMPIO"},"geometry":{"type":"Point","coordinates":[-57.47257,-25.14118]}},{"type":"Feature","properties":{"nombre":"Escuela Nacional N\u00ba7603","tipo":"school","ciudad":"LIMPIO"},"geometry":{"type":"Point","coordinates":[-57.43859,-25.1885]}},{"type":"Feature","properties":{"nombre":"Limpia Concepcion Cuevas","tipo":"school","ciudad":"LIMPIO"},"geometry":{"type":"Point","coordinates":[-57.44432,-25.18019]}},{"type":"Feature","properties":{"nombre":"5890 ASCENCION GONZALEZ DE ACOSTA","tipo":"school","ciudad":"LIMPIO"},"geometry":{"type":"Point","coordinates":[-57.45567,-25.18124]}},{"type":"Feature","properties":{"nombre":"(2381) Inmaculada Concepcion","tipo":"school","ciudad":"LIMPIO"},"geometry":{"type":"Point","coordinates":[-57.44617,-25.19615]}},{"type":"Feature","properties":{"nombre":"6560 (15409) Ni\u00f1o Jesus","tipo":"school","ciudad":"LIMPIO"},"geometry":{"type":"Point","coordinates":[-57.45674,-25.20298]}},{"type":"Feature","properties":{"nombre":"648 Profesor Simeon Riveros","tipo":"school","ciudad":"LIMPIO"},"geometry":{"type":"Point","coordinates":[-57.4645,-25.19929]}},{"type":"Feature","properties":{"nombre":"Santa Teresita","tipo":"school","ciudad":"LIMPIO"},"geometry":{"type":"Point","coordinates":[-57.46078,-25.20336]}},{"type":"Feature","properties":{"nombre":"6547 Centro Educativo Santa Rita de Cassia","tipo":"school","ciudad":"LIMPIO"},"geometry":{"type":"Point","coordinates":[-57.46377,-25.18994]}},{"type":"Feature","properties":{"nombre":"4783 (14719) San Vicente de Paul","tipo":"school","ciudad":"LIMPIO"},"geometry":{"type":"Point","coordinates":[-57.45913,-25.19013]}},{"type":"Feature","properties":{"nombre":"2379 SAGRADO CORAZON DE JESUS","tipo":"school","ciudad":"LIMPIO"},"geometry":{"type":"Point","coordinates":[-57.45921,-25.18591]}},{"type":"Feature","properties":{"nombre":"Escuela Basica","tipo":"school","ciudad":"LIMPIO"},"geometry":{"type":"Point","coordinates":[-57.45922,-25.18571]}},{"type":"Feature","properties":{"nombre":"3015 PADRE MARIO CLEVA","tipo":"school","ciudad":"LIMPIO"},"geometry":{"type":"Point","coordinates":[-57.46092,-25.18377]}},{"type":"Feature","properties":{"nombre":"3681 (13771) Monta\u00f1a Alta","tipo":"school","ciudad":"LIMPIO"},"geometry":{"type":"Point","coordinates":[-57.47148,-25.18016]}},{"type":"Feature","properties":{"nombre":"6066 Santa Teresa de Jesus","tipo":"school","ciudad":"LIMPIO"},"geometry":{"type":"Point","coordinates":[-57.47064,-25.1679]}},{"type":"Feature","properties":{"nombre":"4729 (14782) Don Crispin Morales Torres","tipo":"school","ciudad":"LIMPIO"},"geometry":{"type":"Point","coordinates":[-57.47303,-25.17136]}},{"type":"Feature","properties":{"nombre":"Colegio Privado San Marcos.","tipo":"school","ciudad":"LIMPIO"},"geometry":{"type":"Point","coordinates":[-57.47358,-25.16921]}},{"type":"Feature","properties":{"nombre":"Centro Educativo Augusto Roa Bastos","tipo":"school","ciudad":"LIMPIO"},"geometry":{"type":"Point","coordinates":[-57.47428,-25.16799]}},{"type":"Feature","properties":{"nombre":"san roque","tipo":"school","ciudad":"LIMPIO"},"geometry":{"type":"Point","coordinates":[-57.47502,-25.16591]}},{"type":"Feature","properties":{"nombre":"4728 (14437) San Roque Gonzalez de Santa Cruz","tipo":"school","ciudad":"LIMPIO"},"geometry":{"type":"Point","coordinates":[-57.47503,-25.16601]}},{"type":"Feature","properties":{"nombre":"6107 San Roque Gonzalez de Santa Cruz","tipo":"school","ciudad":"LIMPIO"},"geometry":{"type":"Point","coordinates":[-57.47504,-25.16593]}},{"type":"Feature","properties":{"nombre":"Calix","tipo":"school","ciudad":"LIMPIO"},"geometry":{"type":"Point","coordinates":[-57.4747,-25.16599]}},{"type":"Feature","properties":{"nombre":"San Luis","tipo":"school","ciudad":"LIMPIO"},"geometry":{"type":"Point","coordinates":[-57.47261,-25.16391]}},{"type":"Feature","properties":{"nombre":"school sin nombre (LIMPIO)","tipo":"school","ciudad":"LIMPIO"},"geometry":{"type":"Point","coordinates":[-57.47283,-25.16353]}},{"type":"Feature","properties":{"nombre":"school sin nombre (LIMPIO)","tipo":"school","ciudad":"LIMPIO"},"geometry":{"type":"Point","coordinates":[-57.47469,-25.164]}},{"type":"Feature","properties":{"nombre":"4633 (15097) Sakura","tipo":"school","ciudad":"LIMPIO"},"geometry":{"type":"Point","coordinates":[-57.46478,-25.16992]}},{"type":"Feature","properties":{"nombre":"6561 (15370) San Isidro Labrador","tipo":"school","ciudad":"LIMPIO"},"geometry":{"type":"Point","coordinates":[-57.46103,-25.17268]}},{"type":"Feature","properties":{"nombre":"6162 Sagrada Familia","tipo":"school","ciudad":"LIMPIO"},"geometry":{"type":"Point","coordinates":[-57.45978,-25.17544]}},{"type":"Feature","properties":{"nombre":"school sin nombre (LIMPIO)","tipo":"school","ciudad":"LIMPIO"},"geometry":{"type":"Point","coordinates":[-57.45614,-25.16365]}},{"type":"Feature","properties":{"nombre":"4717 (13453) Maria Auxiliadora","tipo":"school","ciudad":"LIMPIO"},"geometry":{"type":"Point","coordinates":[-57.45647,-25.16376]}},{"type":"Feature","properties":{"nombre":"Escuela San Ram\u00f3n","tipo":"school","ciudad":"LIMPIO"},"geometry":{"type":"Point","coordinates":[-57.45612,-25.15892]}},{"type":"Feature","properties":{"nombre":"school sin nombre (LIMPIO)","tipo":"school","ciudad":"LIMPIO"},"geometry":{"type":"Point","coordinates":[-57.45626,-25.15887]}},{"type":"Feature","properties":{"nombre":"San Isidro","tipo":"school","ciudad":"LIMPIO"},"geometry":{"type":"Point","coordinates":[-57.45701,-25.15177]}},{"type":"Feature","properties":{"nombre":"school sin nombre (LIMPIO)","tipo":"school","ciudad":"LIMPIO"},"geometry":{"type":"Point","coordinates":[-57.45661,-25.15191]}},{"type":"Feature","properties":{"nombre":"6558 (15270) Ni\u00f1o Jesus","tipo":"school","ciudad":"LIMPIO"},"geometry":{"type":"Point","coordinates":[-57.4659,-25.1474]}},{"type":"Feature","properties":{"nombre":"4719 (13502) San Salvador","tipo":"school","ciudad":"LIMPIO"},"geometry":{"type":"Point","coordinates":[-57.46729,-25.15283]}},{"type":"Feature","properties":{"nombre":"school sin nombre (LIMPIO)","tipo":"school","ciudad":"LIMPIO"},"geometry":{"type":"Point","coordinates":[-57.46701,-25.15266]}},{"type":"Feature","properties":{"nombre":"(7866) Romano","tipo":"school","ciudad":"LIMPIO"},"geometry":{"type":"Point","coordinates":[-57.47295,-25.15372]}},{"type":"Feature","properties":{"nombre":"school sin nombre (LIMPIO)","tipo":"school","ciudad":"LIMPIO"},"geometry":{"type":"Point","coordinates":[-57.47349,-25.14641]}},{"type":"Feature","properties":{"nombre":"C.E.D.M. DE MANDOS MEDIOS TAPUA","tipo":"college","ciudad":"LIMPIO"},"geometry":{"type":"Point","coordinates":[-57.47324,-25.1463]}},{"type":"Feature","properties":{"nombre":"6065 Maria Montessori","tipo":"school","ciudad":"LIMPIO"},"geometry":{"type":"Point","coordinates":[-57.47297,-25.14639]}},{"type":"Feature","properties":{"nombre":"school sin nombre (LIMPIO)","tipo":"school","ciudad":"LIMPIO"},"geometry":{"type":"Point","coordinates":[-57.47307,-25.14372]}},{"type":"Feature","properties":{"nombre":"Rincon del Pe\u00f1on","tipo":"school","ciudad":"LIMPIO"},"geometry":{"type":"Point","coordinates":[-57.47306,-25.14371]}},{"type":"Feature","properties":{"nombre":"(6439) Virgen de Caacupe","tipo":"school","ciudad":"LIMPIO"},"geometry":{"type":"Point","coordinates":[-57.48698,-25.15011]}},{"type":"Feature","properties":{"nombre":"Colegio Nacional San Jos\u00e9","tipo":"school","ciudad":"LIMPIO"},"geometry":{"type":"Point","coordinates":[-57.47565,-25.16414]}},{"type":"Feature","properties":{"nombre":"(22) San Jose","tipo":"school","ciudad":"LIMPIO"},"geometry":{"type":"Point","coordinates":[-57.47565,-25.16416]}},{"type":"Feature","properties":{"nombre":"San Jose","tipo":"school","ciudad":"LIMPIO"},"geometry":{"type":"Point","coordinates":[-57.47535,-25.16444]}},{"type":"Feature","properties":{"nombre":"(7416) Las Almenas","tipo":"school","ciudad":"LIMPIO"},"geometry":{"type":"Point","coordinates":[-57.4756,-25.16644]}},{"type":"Feature","properties":{"nombre":"Net Word - Ex Helen","tipo":"school","ciudad":"LIMPIO"},"geometry":{"type":"Point","coordinates":[-57.47595,-25.16844]}},{"type":"Feature","properties":{"nombre":"M-54 BATALLON FERROVIARIO","tipo":"school","ciudad":"LIMPIO"},"geometry":{"type":"Point","coordinates":[-57.47675,-25.16782]}},{"type":"Feature","properties":{"nombre":"4732 (14389 ) Privada San Marcos","tipo":"school","ciudad":"LIMPIO"},"geometry":{"type":"Point","coordinates":[-57.4795,-25.16971]}},{"type":"Feature","properties":{"nombre":"Unasur","tipo":"university","ciudad":"LIMPIO"},"geometry":{"type":"Point","coordinates":[-57.477,-25.17578]}},{"type":"Feature","properties":{"nombre":"4727 (14366) Ni\u00f1o Jesus","tipo":"school","ciudad":"LIMPIO"},"geometry":{"type":"Point","coordinates":[-57.47869,-25.17536]}},{"type":"Feature","properties":{"nombre":"(7826) San Patricio","tipo":"school","ciudad":"LIMPIO"},"geometry":{"type":"Point","coordinates":[-57.47971,-25.17281]}},{"type":"Feature","properties":{"nombre":"Instituto Paraguayo de Artesan\u00eda","tipo":"school","ciudad":"LIMPIO"},"geometry":{"type":"Point","coordinates":[-57.47999,-25.17275]}},{"type":"Feature","properties":{"nombre":"Centro Educativo La Asuncion De Mar\u00eda.","tipo":"school","ciudad":"LIMPIO"},"geometry":{"type":"Point","coordinates":[-57.47979,-25.17086]}},{"type":"Feature","properties":{"nombre":"3435 (13998) La Asuncion de Maria","tipo":"school","ciudad":"LIMPIO"},"geometry":{"type":"Point","coordinates":[-57.48021,-25.171]}},{"type":"Feature","properties":{"nombre":"3435 (13998) La Asuncion de Maria","tipo":"school","ciudad":"LIMPIO"},"geometry":{"type":"Point","coordinates":[-57.47983,-25.1707]}},{"type":"Feature","properties":{"nombre":"(7263) Maria Auxiliadora","tipo":"school","ciudad":"LIMPIO"},"geometry":{"type":"Point","coordinates":[-57.48104,-25.16946]}},{"type":"Feature","properties":{"nombre":"Santisima Virgen Maria Auxiliadora","tipo":"school","ciudad":"LIMPIO"},"geometry":{"type":"Point","coordinates":[-57.48115,-25.1694]}},{"type":"Feature","properties":{"nombre":"4718 (13571) Santa Lucia","tipo":"school","ciudad":"LIMPIO"},"geometry":{"type":"Point","coordinates":[-57.48596,-25.16803]}},{"type":"Feature","properties":{"nombre":"school sin nombre (LIMPIO)","tipo":"school","ciudad":"LIMPIO"},"geometry":{"type":"Point","coordinates":[-57.48529,-25.1719]}},{"type":"Feature","properties":{"nombre":"(2695) \u00d1andejara","tipo":"school","ciudad":"LIMPIO"},"geometry":{"type":"Point","coordinates":[-57.48518,-25.17225]}},{"type":"Feature","properties":{"nombre":"(1876) Capitan Romualdo Nu\u00f1ez","tipo":"school","ciudad":"LIMPIO"},"geometry":{"type":"Point","coordinates":[-57.49609,-25.14803]}},{"type":"Feature","properties":{"nombre":"6258 (14368) Maria Auxiliadora","tipo":"school","ciudad":"MARIANO ROQUE ALONSO"},"geometry":{"type":"Point","coordinates":[-57.51987,-25.18618]}},{"type":"Feature","properties":{"nombre":"2490 Maka Angel Kanaiti","tipo":"school","ciudad":"MARIANO ROQUE ALONSO"},"geometry":{"type":"Point","coordinates":[-57.52576,-25.19242]}},{"type":"Feature","properties":{"nombre":"school sin nombre (MARIANO ROQUE ALONSO)","tipo":"school","ciudad":"MARIANO ROQUE ALONSO"},"geometry":{"type":"Point","coordinates":[-57.52722,-25.18602]}},{"type":"Feature","properties":{"nombre":"Escuela Fe y Alegria","tipo":"school","ciudad":"MARIANO ROQUE ALONSO"},"geometry":{"type":"Point","coordinates":[-57.52715,-25.1858]}},{"type":"Feature","properties":{"nombre":"school sin nombre (MARIANO ROQUE ALONSO)","tipo":"school","ciudad":"MARIANO ROQUE ALONSO"},"geometry":{"type":"Point","coordinates":[-57.5275,-25.18597]}},{"type":"Feature","properties":{"nombre":"school sin nombre (MARIANO ROQUE ALONSO)","tipo":"school","ciudad":"MARIANO ROQUE ALONSO"},"geometry":{"type":"Point","coordinates":[-57.52742,-25.18549]}},{"type":"Feature","properties":{"nombre":"school sin nombre (MARIANO ROQUE ALONSO)","tipo":"school","ciudad":"MARIANO ROQUE ALONSO"},"geometry":{"type":"Point","coordinates":[-57.52704,-25.18525]}},{"type":"Feature","properties":{"nombre":"4711 Aposento Alto - San Rafael","tipo":"school","ciudad":"MARIANO ROQUE ALONSO"},"geometry":{"type":"Point","coordinates":[-57.53295,-25.18433]}},{"type":"Feature","properties":{"nombre":"school sin nombre (MARIANO ROQUE ALONSO)","tipo":"school","ciudad":"MARIANO ROQUE ALONSO"},"geometry":{"type":"Point","coordinates":[-57.53281,-25.1844]}},{"type":"Feature","properties":{"nombre":"school sin nombre (MARIANO ROQUE ALONSO)","tipo":"school","ciudad":"MARIANO ROQUE ALONSO"},"geometry":{"type":"Point","coordinates":[-57.53303,-25.18444]}},{"type":"Feature","properties":{"nombre":"school sin nombre (MARIANO ROQUE ALONSO)","tipo":"school","ciudad":"MARIANO ROQUE ALONSO"},"geometry":{"type":"Point","coordinates":[-57.53559,-25.19247]}},{"type":"Feature","properties":{"nombre":"school sin nombre (MARIANO ROQUE ALONSO)","tipo":"school","ciudad":"MARIANO ROQUE ALONSO"},"geometry":{"type":"Point","coordinates":[-57.53569,-25.19226]}},{"type":"Feature","properties":{"nombre":"school sin nombre (MARIANO ROQUE ALONSO)","tipo":"school","ciudad":"MARIANO ROQUE ALONSO"},"geometry":{"type":"Point","coordinates":[-57.53593,-25.19266]}},{"type":"Feature","properties":{"nombre":"school sin nombre (MARIANO ROQUE ALONSO)","tipo":"school","ciudad":"MARIANO ROQUE ALONSO"},"geometry":{"type":"Point","coordinates":[-57.53586,-25.19253]}},{"type":"Feature","properties":{"nombre":"403 Quintina Paredes Silva","tipo":"school","ciudad":"MARIANO ROQUE ALONSO"},"geometry":{"type":"Point","coordinates":[-57.53546,-25.19189]}},{"type":"Feature","properties":{"nombre":"school sin nombre (MARIANO ROQUE ALONSO)","tipo":"school","ciudad":"MARIANO ROQUE ALONSO"},"geometry":{"type":"Point","coordinates":[-57.53564,-25.19216]}},{"type":"Feature","properties":{"nombre":"school sin nombre (MARIANO ROQUE ALONSO)","tipo":"school","ciudad":"MARIANO ROQUE ALONSO"},"geometry":{"type":"Point","coordinates":[-57.52766,-25.18522]}},{"type":"Feature","properties":{"nombre":"school sin nombre (MARIANO ROQUE ALONSO)","tipo":"school","ciudad":"MARIANO ROQUE ALONSO"},"geometry":{"type":"Point","coordinates":[-57.5276,-25.18543]}},{"type":"Feature","properties":{"nombre":"school sin nombre (MARIANO ROQUE ALONSO)","tipo":"school","ciudad":"MARIANO ROQUE ALONSO"},"geometry":{"type":"Point","coordinates":[-57.52781,-25.18558]}},{"type":"Feature","properties":{"nombre":"school sin nombre (MARIANO ROQUE ALONSO)","tipo":"school","ciudad":"MARIANO ROQUE ALONSO"},"geometry":{"type":"Point","coordinates":[-57.52767,-25.18562]}},{"type":"Feature","properties":{"nombre":"school sin nombre (MARIANO ROQUE ALONSO)","tipo":"school","ciudad":"MARIANO ROQUE ALONSO"},"geometry":{"type":"Point","coordinates":[-57.52776,-25.18592]}},{"type":"Feature","properties":{"nombre":"school sin nombre (MARIANO ROQUE ALONSO)","tipo":"school","ciudad":"MARIANO ROQUE ALONSO"},"geometry":{"type":"Point","coordinates":[-57.52783,-25.18584]}},{"type":"Feature","properties":{"nombre":"4730 (13911) Hogar de Jesus","tipo":"school","ciudad":"MARIANO ROQUE ALONSO"},"geometry":{"type":"Point","coordinates":[-57.52798,-25.18592]}},{"type":"Feature","properties":{"nombre":"5635 (15078) Divino Maestro","tipo":"school","ciudad":"MARIANO ROQUE ALONSO"},"geometry":{"type":"Point","coordinates":[-57.53322,-25.2002]}},{"type":"Feature","properties":{"nombre":"6564 (14069) Maria Auxiliadora","tipo":"school","ciudad":"MARIANO ROQUE ALONSO"},"geometry":{"type":"Point","coordinates":[-57.54062,-25.19676]}},{"type":"Feature","properties":{"nombre":"Escuela Nacional Espiritu Santo","tipo":"school","ciudad":"MARIANO ROQUE ALONSO"},"geometry":{"type":"Point","coordinates":[-57.54385,-25.20076]}},{"type":"Feature","properties":{"nombre":"7010 Sudamericana","tipo":"school","ciudad":"MARIANO ROQUE ALONSO"},"geometry":{"type":"Point","coordinates":[-57.53926,-25.20839]}},{"type":"Feature","properties":{"nombre":"Ebenezer","tipo":"school","ciudad":"MARIANO ROQUE ALONSO"},"geometry":{"type":"Point","coordinates":[-57.52236,-25.2082]}},{"type":"Feature","properties":{"nombre":"6567 (15244) Centro Pedagogico Mariano R.","tipo":"school","ciudad":"MARIANO ROQUE ALONSO"},"geometry":{"type":"Point","coordinates":[-57.52267,-25.20316]}},{"type":"Feature","properties":{"nombre":"7090 Cabo 1\u00ba Galeano","tipo":"school","ciudad":"MARIANO ROQUE ALONSO"},"geometry":{"type":"Point","coordinates":[-57.52619,-25.1952]}},{"type":"Feature","properties":{"nombre":"Colegio Nacional Zenon Franco","tipo":"school","ciudad":"MARIANO ROQUE ALONSO"},"geometry":{"type":"Point","coordinates":[-57.51891,-25.19994]}},{"type":"Feature","properties":{"nombre":"355 Zenon Franco","tipo":"school","ciudad":"MARIANO ROQUE ALONSO"},"geometry":{"type":"Point","coordinates":[-57.51877,-25.19974]}},{"type":"Feature","properties":{"nombre":"Colegio Nacional Zenon Franco","tipo":"school","ciudad":"MARIANO ROQUE ALONSO"},"geometry":{"type":"Point","coordinates":[-57.5186,-25.19995]}},{"type":"Feature","properties":{"nombre":"Colegio Nacional Zenon Franco","tipo":"school","ciudad":"MARIANO ROQUE ALONSO"},"geometry":{"type":"Point","coordinates":[-57.51843,-25.19986]}},{"type":"Feature","properties":{"nombre":"Colegio Nacional Zenon Franco","tipo":"school","ciudad":"MARIANO ROQUE ALONSO"},"geometry":{"type":"Point","coordinates":[-57.5182,-25.19972]}},{"type":"Feature","properties":{"nombre":"Colegio Nacional Zenon Franco","tipo":"school","ciudad":"MARIANO ROQUE ALONSO"},"geometry":{"type":"Point","coordinates":[-57.51823,-25.1994]}},{"type":"Feature","properties":{"nombre":"Colegio Nacional Zenon Franco","tipo":"school","ciudad":"MARIANO ROQUE ALONSO"},"geometry":{"type":"Point","coordinates":[-57.51835,-25.19969]}},{"type":"Feature","properties":{"nombre":"Colegio Nacional Zenon Franco","tipo":"school","ciudad":"MARIANO ROQUE ALONSO"},"geometry":{"type":"Point","coordinates":[-57.51831,-25.19956]}},{"type":"Feature","properties":{"nombre":"Colegio Nacional Zenon Franco","tipo":"school","ciudad":"MARIANO ROQUE ALONSO"},"geometry":{"type":"Point","coordinates":[-57.51855,-25.19963]}},{"type":"Feature","properties":{"nombre":"Colegio Nacional Zenon Franco","tipo":"school","ciudad":"MARIANO ROQUE ALONSO"},"geometry":{"type":"Point","coordinates":[-57.5185,-25.19943]}},{"type":"Feature","properties":{"nombre":"6566 (15369) 12 De Junio","tipo":"school","ciudad":"MARIANO ROQUE ALONSO"},"geometry":{"type":"Point","coordinates":[-57.51572,-25.20942]}},{"type":"Feature","properties":{"nombre":"school sin nombre (LUQUE)","tipo":"school","ciudad":"LUQUE"},"geometry":{"type":"Point","coordinates":[-57.5124,-25.20985]}},{"type":"Feature","properties":{"nombre":"Colegio San Miguel Arcangel","tipo":"school","ciudad":"LUQUE"},"geometry":{"type":"Point","coordinates":[-57.51285,-25.20944]}},{"type":"Feature","properties":{"nombre":"San Miguel Arcangel","tipo":"school","ciudad":"LUQUE"},"geometry":{"type":"Point","coordinates":[-57.51271,-25.20915]}},{"type":"Feature","properties":{"nombre":"Escuela B\u00e1sica F\u00e9lix Ruiz","tipo":"school","ciudad":"MARIANO ROQUE ALONSO"},"geometry":{"type":"Point","coordinates":[-57.50424,-25.204]}},{"type":"Feature","properties":{"nombre":"2378 Felix Ruiz","tipo":"school","ciudad":"MARIANO ROQUE ALONSO"},"geometry":{"type":"Point","coordinates":[-57.50423,-25.2041]}},{"type":"Feature","properties":{"nombre":"Escuela B\u00e1sica F\u00e9lix Ruiz","tipo":"school","ciudad":"MARIANO ROQUE ALONSO"},"geometry":{"type":"Point","coordinates":[-57.50437,-25.20406]}},{"type":"Feature","properties":{"nombre":"Escuela B\u00e1sica F\u00e9lix Ruiz","tipo":"school","ciudad":"MARIANO ROQUE ALONSO"},"geometry":{"type":"Point","coordinates":[-57.50432,-25.20418]}},{"type":"Feature","properties":{"nombre":"Escuela B\u00e1sica F\u00e9lix Ruiz","tipo":"school","ciudad":"MARIANO ROQUE ALONSO"},"geometry":{"type":"Point","coordinates":[-57.50442,-25.20428]}},{"type":"Feature","properties":{"nombre":"Escuela B\u00e1sica F\u00e9lix Ruiz","tipo":"school","ciudad":"MARIANO ROQUE ALONSO"},"geometry":{"type":"Point","coordinates":[-57.50437,-25.20388]}},{"type":"Feature","properties":{"nombre":"Escuela B\u00e1sica F\u00e9lix Ruiz","tipo":"school","ciudad":"MARIANO ROQUE ALONSO"},"geometry":{"type":"Point","coordinates":[-57.50425,-25.20385]}},{"type":"Feature","properties":{"nombre":"5569 (15247) San Marcos","tipo":"school","ciudad":"LIMPIO"},"geometry":{"type":"Point","coordinates":[-57.49363,-25.17763]}},{"type":"Feature","properties":{"nombre":"2895","tipo":"school","ciudad":"LIMPIO"},"geometry":{"type":"Point","coordinates":[-57.49521,-25.18897]}},{"type":"Feature","properties":{"nombre":"6103 San Rafael","tipo":"school","ciudad":"LIMPIO"},"geometry":{"type":"Point","coordinates":[-57.48736,-25.18796]}},{"type":"Feature","properties":{"nombre":"(6103) San Rafael","tipo":"school","ciudad":"LIMPIO"},"geometry":{"type":"Point","coordinates":[-57.48738,-25.18795]}},{"type":"Feature","properties":{"nombre":"Centro educativo \u00f1andejara","tipo":"school","ciudad":"LIMPIO"},"geometry":{"type":"Point","coordinates":[-57.49134,-25.17985]}},{"type":"Feature","properties":{"nombre":"5632 (15273) El portal - Limpio","tipo":"school","ciudad":"LIMPIO"},"geometry":{"type":"Point","coordinates":[-57.48316,-25.18276]}},{"type":"Feature","properties":{"nombre":"Centro Educativo Hno. Claudio Lozano","tipo":"school","ciudad":"LIMPIO"},"geometry":{"type":"Point","coordinates":[-57.477,-25.17879]}},{"type":"Feature","properties":{"nombre":"Sagrada Familia","tipo":"school","ciudad":"LIMPIO"},"geometry":{"type":"Point","coordinates":[-57.47747,-25.17945]}},{"type":"Feature","properties":{"nombre":"(11-203) San Jorge","tipo":"school","ciudad":"LIMPIO"},"geometry":{"type":"Point","coordinates":[-57.48109,-25.18987]}},{"type":"Feature","properties":{"nombre":"4787 (13370) Beato Enrique de Osso","tipo":"school","ciudad":"LIMPIO"},"geometry":{"type":"Point","coordinates":[-57.48081,-25.18985]}},{"type":"Feature","properties":{"nombre":"Juan de Salazar","tipo":"school","ciudad":"LIMPIO"},"geometry":{"type":"Point","coordinates":[-57.47955,-25.20878]}},{"type":"Feature","properties":{"nombre":"Escuela Espiritu Santo","tipo":"school","ciudad":"LUQUE"},"geometry":{"type":"Point","coordinates":[-57.48002,-25.22785]}},{"type":"Feature","properties":{"nombre":"2375- Mora Cue","tipo":"school","ciudad":"LUQUE"},"geometry":{"type":"Point","coordinates":[-57.47566,-25.23182]}},{"type":"Feature","properties":{"nombre":"Colegio Defensores del Chaco","tipo":"school","ciudad":"LUQUE"},"geometry":{"type":"Point","coordinates":[-57.47543,-25.2319]}},{"type":"Feature","properties":{"nombre":"3788 (13766) Sub-Of.Insp.Eduardo Luis Ir","tipo":"school","ciudad":"LUQUE"},"geometry":{"type":"Point","coordinates":[-57.48181,-25.23626]}},{"type":"Feature","properties":{"nombre":"Dr. Juan Javaloyes y Gonzalez","tipo":"school","ciudad":"LUQUE"},"geometry":{"type":"Point","coordinates":[-57.50356,-25.23959]}},{"type":"Feature","properties":{"nombre":"school sin nombre (LUQUE)","tipo":"school","ciudad":"LUQUE"},"geometry":{"type":"Point","coordinates":[-57.50876,-25.23785]}},{"type":"Feature","properties":{"nombre":"school sin nombre (LUQUE)","tipo":"school","ciudad":"LUQUE"},"geometry":{"type":"Point","coordinates":[-57.5089,-25.23789]}},{"type":"Feature","properties":{"nombre":"Escuela Z\u00e1rate Isla","tipo":"school","ciudad":"LUQUE"},"geometry":{"type":"Point","coordinates":[-57.50897,-25.23775]}},{"type":"Feature","properties":{"nombre":"school sin nombre (LUQUE)","tipo":"school","ciudad":"LUQUE"},"geometry":{"type":"Point","coordinates":[-57.509,-25.23759]}},{"type":"Feature","properties":{"nombre":"858 Prof. Juan Javaloyes y Gonzalez","tipo":"school","ciudad":"LUQUE"},"geometry":{"type":"Point","coordinates":[-57.50823,-25.23514]}},{"type":"Feature","properties":{"nombre":"2657 (12682)","tipo":"school","ciudad":"MARIANO ROQUE ALONSO"},"geometry":{"type":"Point","coordinates":[-57.52277,-25.22286]}},{"type":"Feature","properties":{"nombre":"Escuela Inmaculada Concepcion","tipo":"school","ciudad":"MARIANO ROQUE ALONSO"},"geometry":{"type":"Point","coordinates":[-57.52257,-25.22283]}},{"type":"Feature","properties":{"nombre":"Escuela Inmaculada Concepcion","tipo":"school","ciudad":"MARIANO ROQUE ALONSO"},"geometry":{"type":"Point","coordinates":[-57.52265,-25.22294]}},{"type":"Feature","properties":{"nombre":"4731 (14008) Despertar","tipo":"school","ciudad":"MARIANO ROQUE ALONSO"},"geometry":{"type":"Point","coordinates":[-57.5246,-25.22507]}},{"type":"Feature","properties":{"nombre":"Escuela Fe y Alegr\u00eda","tipo":"school","ciudad":"MARIANO ROQUE ALONSO"},"geometry":{"type":"Point","coordinates":[-57.52391,-25.22532]}},{"type":"Feature","properties":{"nombre":"Fe y Alegr\u00eda","tipo":"school","ciudad":"MARIANO ROQUE ALONSO"},"geometry":{"type":"Point","coordinates":[-57.52392,-25.22515]}},{"type":"Feature","properties":{"nombre":"Escuela Fe y Alegria","tipo":"school","ciudad":"MARIANO ROQUE ALONSO"},"geometry":{"type":"Point","coordinates":[-57.52393,-25.22504]}},{"type":"Feature","properties":{"nombre":"Fe y Alegr\u00eda","tipo":"school","ciudad":"MARIANO ROQUE ALONSO"},"geometry":{"type":"Point","coordinates":[-57.52425,-25.22501]}},{"type":"Feature","properties":{"nombre":"Fe y Alegr\u00eda","tipo":"school","ciudad":"MARIANO ROQUE ALONSO"},"geometry":{"type":"Point","coordinates":[-57.52418,-25.22486]}},{"type":"Feature","properties":{"nombre":"Fe y Alegr\u00eda","tipo":"school","ciudad":"MARIANO ROQUE ALONSO"},"geometry":{"type":"Point","coordinates":[-57.52391,-25.22474]}},{"type":"Feature","properties":{"nombre":"Fe y Alegr\u00eda","tipo":"school","ciudad":"MARIANO ROQUE ALONSO"},"geometry":{"type":"Point","coordinates":[-57.52345,-25.2251]}},{"type":"Feature","properties":{"nombre":"Nuestra Se\u00f1ora del Carmen","tipo":"school","ciudad":"MARIANO ROQUE ALONSO"},"geometry":{"type":"Point","coordinates":[-57.52319,-25.21269]}},{"type":"Feature","properties":{"nombre":"Nuestra Se\u00f1ora del Carmen","tipo":"school","ciudad":"MARIANO ROQUE ALONSO"},"geometry":{"type":"Point","coordinates":[-57.523,-25.21254]}},{"type":"Feature","properties":{"nombre":"Nuestra Se\u00f1ora del Carmen","tipo":"school","ciudad":"MARIANO ROQUE ALONSO"},"geometry":{"type":"Point","coordinates":[-57.52291,-25.21255]}},{"type":"Feature","properties":{"nombre":"Nuestra Se\u00f1ora del Carmen","tipo":"school","ciudad":"MARIANO ROQUE ALONSO"},"geometry":{"type":"Point","coordinates":[-57.52319,-25.21243]}},{"type":"Feature","properties":{"nombre":"Nuestra Se\u00f1ora del Carmen","tipo":"school","ciudad":"MARIANO ROQUE ALONSO"},"geometry":{"type":"Point","coordinates":[-57.52308,-25.2125]}},{"type":"Feature","properties":{"nombre":"Nuestra Se\u00f1ora del Carmen","tipo":"school","ciudad":"MARIANO ROQUE ALONSO"},"geometry":{"type":"Point","coordinates":[-57.52309,-25.21239]}},{"type":"Feature","properties":{"nombre":"Nuestra Se\u00f1ora del Carmen","tipo":"school","ciudad":"MARIANO ROQUE ALONSO"},"geometry":{"type":"Point","coordinates":[-57.52312,-25.21252]}},{"type":"Feature","properties":{"nombre":"4726 (14393) Nuestra Se\u00f1ora del Carmen","tipo":"school","ciudad":"MARIANO ROQUE ALONSO"},"geometry":{"type":"Point","coordinates":[-57.52324,-25.2125]}},{"type":"Feature","properties":{"nombre":"Nuestra Se\u00f1ora del Carmen","tipo":"school","ciudad":"MARIANO ROQUE ALONSO"},"geometry":{"type":"Point","coordinates":[-57.52326,-25.21253]}},{"type":"Feature","properties":{"nombre":"15454 CRISTO REDENTOR","tipo":"school","ciudad":"VILLA ELISA"},"geometry":{"type":"Point","coordinates":[-57.5957,-25.37746]}},{"type":"Feature","properties":{"nombre":"EMILIO JOHANNSEN","tipo":"school","ciudad":"VILLA ELISA"},"geometry":{"type":"Point","coordinates":[-57.58982,-25.37864]}},{"type":"Feature","properties":{"nombre":"school sin nombre (VILLA ELISA)","tipo":"school","ciudad":"VILLA ELISA"},"geometry":{"type":"Point","coordinates":[-57.58957,-25.37867]}},{"type":"Feature","properties":{"nombre":"school sin nombre (VILLA ELISA)","tipo":"school","ciudad":"VILLA ELISA"},"geometry":{"type":"Point","coordinates":[-57.58957,-25.37869]}},{"type":"Feature","properties":{"nombre":"school sin nombre (VILLA ELISA)","tipo":"school","ciudad":"VILLA ELISA"},"geometry":{"type":"Point","coordinates":[-57.58955,-25.37851]}},{"type":"Feature","properties":{"nombre":"school sin nombre (VILLA ELISA)","tipo":"school","ciudad":"VILLA ELISA"},"geometry":{"type":"Point","coordinates":[-57.58955,-25.37851]}},{"type":"Feature","properties":{"nombre":"school sin nombre (VILLA ELISA)","tipo":"school","ciudad":"VILLA ELISA"},"geometry":{"type":"Point","coordinates":[-57.58583,-25.37836]}},{"type":"Feature","properties":{"nombre":"school sin nombre (VILLA ELISA)","tipo":"school","ciudad":"VILLA ELISA"},"geometry":{"type":"Point","coordinates":[-57.58518,-25.3783]}},{"type":"Feature","properties":{"nombre":"3655 (13773) COL. PRESBITERIANO CERRITOS","tipo":"school","ciudad":"VILLA ELISA"},"geometry":{"type":"Point","coordinates":[-57.58515,-25.37799]}},{"type":"Feature","properties":{"nombre":"school sin nombre (VILLA ELISA)","tipo":"school","ciudad":"VILLA ELISA"},"geometry":{"type":"Point","coordinates":[-57.5852,-25.37802]}},{"type":"Feature","properties":{"nombre":"school sin nombre (VILLA ELISA)","tipo":"school","ciudad":"VILLA ELISA"},"geometry":{"type":"Point","coordinates":[-57.58556,-25.37821]}},{"type":"Feature","properties":{"nombre":"school sin nombre (VILLA ELISA)","tipo":"school","ciudad":"VILLA ELISA"},"geometry":{"type":"Point","coordinates":[-57.58774,-25.37766]}},{"type":"Feature","properties":{"nombre":"school sin nombre (VILLA ELISA)","tipo":"school","ciudad":"VILLA ELISA"},"geometry":{"type":"Point","coordinates":[-57.58489,-25.37559]}},{"type":"Feature","properties":{"nombre":"school sin nombre (VILLA ELISA)","tipo":"school","ciudad":"VILLA ELISA"},"geometry":{"type":"Point","coordinates":[-57.58487,-25.3756]}},{"type":"Feature","properties":{"nombre":"school sin nombre (VILLA ELISA)","tipo":"school","ciudad":"VILLA ELISA"},"geometry":{"type":"Point","coordinates":[-57.58494,-25.37596]}},{"type":"Feature","properties":{"nombre":"196 REINO DE SUECIA","tipo":"school","ciudad":"VILLA ELISA"},"geometry":{"type":"Point","coordinates":[-57.58495,-25.37574]}},{"type":"Feature","properties":{"nombre":"school sin nombre (VILLA ELISA)","tipo":"school","ciudad":"VILLA ELISA"},"geometry":{"type":"Point","coordinates":[-57.58508,-25.37545]}},{"type":"Feature","properties":{"nombre":"school sin nombre (VILLA ELISA)","tipo":"school","ciudad":"VILLA ELISA"},"geometry":{"type":"Point","coordinates":[-57.58507,-25.37546]}},{"type":"Feature","properties":{"nombre":"school sin nombre (VILLA ELISA)","tipo":"school","ciudad":"VILLA ELISA"},"geometry":{"type":"Point","coordinates":[-57.58164,-25.37504]}},{"type":"Feature","properties":{"nombre":"school sin nombre (VILLA ELISA)","tipo":"school","ciudad":"VILLA ELISA"},"geometry":{"type":"Point","coordinates":[-57.57648,-25.37385]}},{"type":"Feature","properties":{"nombre":"school sin nombre (VILLA ELISA)","tipo":"school","ciudad":"VILLA ELISA"},"geometry":{"type":"Point","coordinates":[-57.57629,-25.37381]}},{"type":"Feature","properties":{"nombre":"3410 SAGRADO CORAZON DE JESUS","tipo":"school","ciudad":"VILLA ELISA"},"geometry":{"type":"Point","coordinates":[-57.57618,-25.37376]}},{"type":"Feature","properties":{"nombre":"school sin nombre (VILLA ELISA)","tipo":"school","ciudad":"VILLA ELISA"},"geometry":{"type":"Point","coordinates":[-57.57621,-25.37379]}},{"type":"Feature","properties":{"nombre":"school sin nombre (VILLA ELISA)","tipo":"school","ciudad":"VILLA ELISA"},"geometry":{"type":"Point","coordinates":[-57.57649,-25.37367]}},{"type":"Feature","properties":{"nombre":"school sin nombre (VILLA ELISA)","tipo":"school","ciudad":"VILLA ELISA"},"geometry":{"type":"Point","coordinates":[-57.57589,-25.37364]}},{"type":"Feature","properties":{"nombre":"11-369 SAGRADO CORAZON DE JESUS","tipo":"school","ciudad":"VILLA ELISA"},"geometry":{"type":"Point","coordinates":[-57.57341,-25.37414]}},{"type":"Feature","properties":{"nombre":"school sin nombre (VILLA ELISA)","tipo":"school","ciudad":"VILLA ELISA"},"geometry":{"type":"Point","coordinates":[-57.57089,-25.37454]}},{"type":"Feature","properties":{"nombre":"school sin nombre (VILLA ELISA)","tipo":"school","ciudad":"VILLA ELISA"},"geometry":{"type":"Point","coordinates":[-57.57105,-25.37442]}},{"type":"Feature","properties":{"nombre":"school sin nombre (VILLA ELISA)","tipo":"school","ciudad":"VILLA ELISA"},"geometry":{"type":"Point","coordinates":[-57.57105,-25.37434]}},{"type":"Feature","properties":{"nombre":"5549 (14781) MBOCAYATY","tipo":"school","ciudad":"VILLA ELISA"},"geometry":{"type":"Point","coordinates":[-57.57103,-25.37411]}},{"type":"Feature","properties":{"nombre":"school sin nombre (VILLA ELISA)","tipo":"school","ciudad":"VILLA ELISA"},"geometry":{"type":"Point","coordinates":[-57.57089,-25.37402]}},{"type":"Feature","properties":{"nombre":"school sin nombre (VILLA ELISA)","tipo":"school","ciudad":"VILLA ELISA"},"geometry":{"type":"Point","coordinates":[-57.57085,-25.37411]}},{"type":"Feature","properties":{"nombre":"school sin nombre (VILLA ELISA)","tipo":"school","ciudad":"VILLA ELISA"},"geometry":{"type":"Point","coordinates":[-57.57075,-25.3742]}},{"type":"Feature","properties":{"nombre":"school sin nombre (VILLA ELISA)","tipo":"school","ciudad":"VILLA ELISA"},"geometry":{"type":"Point","coordinates":[-57.57068,-25.37439]}},{"type":"Feature","properties":{"nombre":"school sin nombre (VILLA ELISA)","tipo":"school","ciudad":"VILLA ELISA"},"geometry":{"type":"Point","coordinates":[-57.57095,-25.37392]}},{"type":"Feature","properties":{"nombre":"MIGUEL ANGEL RODRIGUEZ","tipo":"school","ciudad":"VILLA ELISA"},"geometry":{"type":"Point","coordinates":[-57.56564,-25.3694]}},{"type":"Feature","properties":{"nombre":"Escuela Grad. N\u00aa 2960 MIGUEL ANGEL RODRIGUEZ","tipo":"school","ciudad":"VILLA ELISA"},"geometry":{"type":"Point","coordinates":[-57.56567,-25.3694]}},{"type":"Feature","properties":{"nombre":"3537 MUNICIPAL SAN JOSE","tipo":"school","ciudad":"VILLA ELISA"},"geometry":{"type":"Point","coordinates":[-57.57444,-25.36779]}},{"type":"Feature","properties":{"nombre":"school sin nombre (VILLA ELISA)","tipo":"school","ciudad":"VILLA ELISA"},"geometry":{"type":"Point","coordinates":[-57.57399,-25.36787]}},{"type":"Feature","properties":{"nombre":"school sin nombre (VILLA ELISA)","tipo":"school","ciudad":"VILLA ELISA"},"geometry":{"type":"Point","coordinates":[-57.57294,-25.37103]}},{"type":"Feature","properties":{"nombre":"6919 MONTREAL","tipo":"school","ciudad":"VILLA ELISA"},"geometry":{"type":"Point","coordinates":[-57.57544,-25.36631]}},{"type":"Feature","properties":{"nombre":"6919 Montereal","tipo":"school","ciudad":"VILLA ELISA"},"geometry":{"type":"Point","coordinates":[-57.57547,-25.36631]}},{"type":"Feature","properties":{"nombre":"6027 Centro Creativo Emanuel","tipo":"school","ciudad":"VILLA ELISA"},"geometry":{"type":"Point","coordinates":[-57.57626,-25.35646]}},{"type":"Feature","properties":{"nombre":"6027 CEN. CREATIVO ENMANUEL DE TRES BOCA","tipo":"school","ciudad":"VILLA ELISA"},"geometry":{"type":"Point","coordinates":[-57.57623,-25.35639]}},{"type":"Feature","properties":{"nombre":"CENTRO DE REHABILITACION ROSA ESTELA - S","tipo":"school","ciudad":"VILLA ELISA"},"geometry":{"type":"Point","coordinates":[-57.57632,-25.35898]}},{"type":"Feature","properties":{"nombre":"Centro Educativo y de Rehabilitacion Rosa Estela -S","tipo":"school","ciudad":"VILLA ELISA"},"geometry":{"type":"Point","coordinates":[-57.57633,-25.35902]}},{"type":"Feature","properties":{"nombre":"Colegio Nacional Rosa Agustina Fari\u00f1a","tipo":"school","ciudad":"VILLA ELISA"},"geometry":{"type":"Point","coordinates":[-57.57697,-25.35843]}},{"type":"Feature","properties":{"nombre":"ROSA AGUSTINA FARI\u00d1A","tipo":"school","ciudad":"VILLA ELISA"},"geometry":{"type":"Point","coordinates":[-57.5768,-25.35842]}},{"type":"Feature","properties":{"nombre":"3649 (13876) SAN IGNACIO DE LOYOLA","tipo":"school","ciudad":"VILLA ELISA"},"geometry":{"type":"Point","coordinates":[-57.57659,-25.35826]}},{"type":"Feature","properties":{"nombre":"Esc. Bas. N\u00b0 3649 San Ignacio de Loyola","tipo":"school","ciudad":"VILLA ELISA"},"geometry":{"type":"Point","coordinates":[-57.57663,-25.3582]}},{"type":"Feature","properties":{"nombre":"8079 Kuarahy Rese","tipo":"school","ciudad":"VILLA ELISA"},"geometry":{"type":"Point","coordinates":[-57.57678,-25.35413]}},{"type":"Feature","properties":{"nombre":"11-310 KUARAHY RESE","tipo":"school","ciudad":"VILLA ELISA"},"geometry":{"type":"Point","coordinates":[-57.5768,-25.35418]}},{"type":"Feature","properties":{"nombre":"MARTHA CELIA","tipo":"school","ciudad":"FERNANDO DE LA MORA"},"geometry":{"type":"Point","coordinates":[-57.5762,-25.34799]}},{"type":"Feature","properties":{"nombre":"Universidad Privada del Este","tipo":"university","ciudad":"FERNANDO DE LA MORA"},"geometry":{"type":"Point","coordinates":[-57.57568,-25.3477]}},{"type":"Feature","properties":{"nombre":"5552 (14990) CAMPUS SCHOOL","tipo":"school","ciudad":"FERNANDO DE LA MORA"},"geometry":{"type":"Point","coordinates":[-57.57301,-25.34818]}},{"type":"Feature","properties":{"nombre":"15316 Centro Educativo Crecer","tipo":"school","ciudad":"VILLA ELISA"},"geometry":{"type":"Point","coordinates":[-57.57293,-25.35323]}},{"type":"Feature","properties":{"nombre":"15316 CENTRO EDUCATIVO CRECER","tipo":"school","ciudad":"VILLA ELISA"},"geometry":{"type":"Point","coordinates":[-57.57284,-25.35333]}},{"type":"Feature","properties":{"nombre":"959 Profesora Mercedes Ibarra","tipo":"school","ciudad":"VILLA ELISA"},"geometry":{"type":"Point","coordinates":[-57.5701,-25.35498]}},{"type":"Feature","properties":{"nombre":"Colegio Mercedes Ibarra","tipo":"school","ciudad":"VILLA ELISA"},"geometry":{"type":"Point","coordinates":[-57.56964,-25.35438]}},{"type":"Feature","properties":{"nombre":"Nosotras","tipo":"school","ciudad":"VILLA ELISA"},"geometry":{"type":"Point","coordinates":[-57.56949,-25.35268]}},{"type":"Feature","properties":{"nombre":"3651 SAGRADO CORAZON DE JESUS","tipo":"school","ciudad":"FERNANDO DE LA MORA"},"geometry":{"type":"Point","coordinates":[-57.56795,-25.3492]}},{"type":"Feature","properties":{"nombre":"Cristiana Jard\u00edn de Dios","tipo":"school","ciudad":"Fernando de la Mora"},"geometry":{"type":"Point","coordinates":[-57.56794,-25.34916]}},{"type":"Feature","properties":{"nombre":"457 C.P.A.N. VIRGEN DE CAACUPE","tipo":"school","ciudad":"FERNANDO DE LA MORA"},"geometry":{"type":"Point","coordinates":[-57.56131,-25.35494]}},{"type":"Feature","properties":{"nombre":"6143 MADRE TERESA DE CALCUTA","tipo":"school","ciudad":"FERNANDO DE LA MORA"},"geometry":{"type":"Point","coordinates":[-57.56086,-25.3553]}},{"type":"Feature","properties":{"nombre":"Centro de Educaci\u00f3n, Capacitaci\u00f3n y Tecnolog\u00eda Campesina","tipo":"school","ciudad":"San Fernando de la Mora"},"geometry":{"type":"Point","coordinates":[-57.56063,-25.35287]}},{"type":"Feature","properties":{"nombre":"7500 SANTA TERESITA DEL NI\u00d1O JESUS","tipo":"school","ciudad":"FERNANDO DE LA MORA"},"geometry":{"type":"Point","coordinates":[-57.55178,-25.34881]}},{"type":"Feature","properties":{"nombre":"6975 Colegio Cristiano Sudamericano","tipo":"school","ciudad":"FERNANDO DE LA MORA"},"geometry":{"type":"Point","coordinates":[-57.55098,-25.3496]}},{"type":"Feature","properties":{"nombre":"Colegio Sudamericano","tipo":"school","ciudad":"FERNANDO DE LA MORA"},"geometry":{"type":"Point","coordinates":[-57.55135,-25.3494]}},{"type":"Feature","properties":{"nombre":"4825 (14253) NI\u00d1O JESUS","tipo":"school","ciudad":"FERNANDO DE LA MORA"},"geometry":{"type":"Point","coordinates":[-57.54863,-25.35031]}},{"type":"Feature","properties":{"nombre":"4186 (14403)VIRGEN DEL CARMEN MUN. N\u00ba10","tipo":"school","ciudad":"\u00d1EMBY"},"geometry":{"type":"Point","coordinates":[-57.56054,-25.36453]}},{"type":"Feature","properties":{"nombre":"5587 (13994) INMACULADA CONCEPCION","tipo":"school","ciudad":"\u00d1EMBY"},"geometry":{"type":"Point","coordinates":[-57.56176,-25.36813]}},{"type":"Feature","properties":{"nombre":"Colegio Sagrada Familia","tipo":"school","ciudad":"\u00d1emby"},"geometry":{"type":"Point","coordinates":[-57.55132,-25.37922]}},{"type":"Feature","properties":{"nombre":"Colegio Sagrada Familia","tipo":"school","ciudad":"\u00d1EMBY"},"geometry":{"type":"Point","coordinates":[-57.55098,-25.37887]}},{"type":"Feature","properties":{"nombre":"6543 SAN PATRICIO","tipo":"school","ciudad":"\u00d1EMBY"},"geometry":{"type":"Point","coordinates":[-57.5477,-25.38986]}},{"type":"Feature","properties":{"nombre":"3451 (13094) NI\u00d1O JESUS","tipo":"school","ciudad":"\u00d1EMBY"},"geometry":{"type":"Point","coordinates":[-57.54549,-25.39263]}},{"type":"Feature","properties":{"nombre":"Colegio T\u00e9cnico De Las Am\u00e9ricas","tipo":"school","ciudad":"\u00d1emby"},"geometry":{"type":"Point","coordinates":[-57.54526,-25.39258]}},{"type":"Feature","properties":{"nombre":"UTIC - Sede \u00d1emby","tipo":"college","ciudad":"\u00d1EMBY"},"geometry":{"type":"Point","coordinates":[-57.54535,-25.39255]}},{"type":"Feature","properties":{"nombre":"Colegio Nacional Pablo Patricio Bogarin","tipo":"school","ciudad":"\u00d1EMBY"},"geometry":{"type":"Point","coordinates":[-57.54514,-25.39429]}},{"type":"Feature","properties":{"nombre":"E.M.A. CERRO CORA","tipo":"school","ciudad":"\u00d1EMBY"},"geometry":{"type":"Point","coordinates":[-57.54575,-25.39566]}},{"type":"Feature","properties":{"nombre":"3413 SAN MARTIN DE PORRES","tipo":"school","ciudad":"\u00d1EMBY"},"geometry":{"type":"Point","coordinates":[-57.54824,-25.3967]}},{"type":"Feature","properties":{"nombre":"Escuela Nacional Carlos Antonio L\u00f3pez","tipo":"school","ciudad":"\u00d1emby"},"geometry":{"type":"Point","coordinates":[-57.54729,-25.39512]}},{"type":"Feature","properties":{"nombre":"25 CARLOS ANTONIO LOPEZ","tipo":"school","ciudad":"\u00d1EMBY"},"geometry":{"type":"Point","coordinates":[-57.54733,-25.39487]}},{"type":"Feature","properties":{"nombre":"5593 (14391) C.E.I. SANTA ROSA","tipo":"school","ciudad":"\u00d1EMBY"},"geometry":{"type":"Point","coordinates":[-57.55279,-25.39338]}},{"type":"Feature","properties":{"nombre":"3415 COLEGIO TECNICO CANAAN","tipo":"school","ciudad":"\u00d1EMBY"},"geometry":{"type":"Point","coordinates":[-57.55468,-25.39252]}},{"type":"Feature","properties":{"nombre":"3444 29 DE SETIEMBRE","tipo":"school","ciudad":"\u00d1EMBY"},"geometry":{"type":"Point","coordinates":[-57.55847,-25.39643]}},{"type":"Feature","properties":{"nombre":"6649 MARIA AUXILIADORA","tipo":"school","ciudad":"\u00d1EMBY"},"geometry":{"type":"Point","coordinates":[-57.56328,-25.38905]}},{"type":"Feature","properties":{"nombre":"Escuela B\u00e1sica N\u00b0 3839 Municipal Marangatu","tipo":"school","ciudad":"VILLA ELISA"},"geometry":{"type":"Point","coordinates":[-57.57396,-25.38376]}},{"type":"Feature","properties":{"nombre":"Escuela Basica N\u00b0 3839 Municipal Marangatu","tipo":"school","ciudad":"VILLA ELISA"},"geometry":{"type":"Point","coordinates":[-57.57416,-25.38362]}},{"type":"Feature","properties":{"nombre":"Escuela B\u00e1sica N\u00b0 3839 Municipal Marangatu","tipo":"school","ciudad":"VILLA ELISA"},"geometry":{"type":"Point","coordinates":[-57.57407,-25.38382]}},{"type":"Feature","properties":{"nombre":"Escuela B\u00e1sica N\u00b0 3839 Municipal Marangatu","tipo":"school","ciudad":"VILLA ELISA"},"geometry":{"type":"Point","coordinates":[-57.57417,-25.38347]}},{"type":"Feature","properties":{"nombre":"Escuela B\u00e1sica N\u00b0 3839 Municipal Marangatu","tipo":"school","ciudad":"VILLA ELISA"},"geometry":{"type":"Point","coordinates":[-57.57404,-25.38348]}},{"type":"Feature","properties":{"nombre":"school sin nombre (VILLA ELISA)","tipo":"school","ciudad":"VILLA ELISA"},"geometry":{"type":"Point","coordinates":[-57.57389,-25.38981]}},{"type":"Feature","properties":{"nombre":"4743 VIRGEN DEL CARMEN-VILLA CLAUDIA","tipo":"school","ciudad":"VILLA ELISA"},"geometry":{"type":"Point","coordinates":[-57.57396,-25.38993]}},{"type":"Feature","properties":{"nombre":"school sin nombre (VILLA ELISA)","tipo":"school","ciudad":"VILLA ELISA"},"geometry":{"type":"Point","coordinates":[-57.57385,-25.38991]}},{"type":"Feature","properties":{"nombre":"school sin nombre (VILLA ELISA)","tipo":"school","ciudad":"VILLA ELISA"},"geometry":{"type":"Point","coordinates":[-57.57366,-25.3898]}},{"type":"Feature","properties":{"nombre":"Capacitaci\u00f3n y Desarrollo","tipo":"school","ciudad":"VILLA ELISA"},"geometry":{"type":"Point","coordinates":[-57.57312,-25.38724]}},{"type":"Feature","properties":{"nombre":"15239 SAN MIGUEL","tipo":"school","ciudad":"\u00d1EMBY"},"geometry":{"type":"Point","coordinates":[-57.56695,-25.3923]}},{"type":"Feature","properties":{"nombre":"6849 (15241) EMANUEL","tipo":"school","ciudad":"SAN ANTONIO"},"geometry":{"type":"Point","coordinates":[-57.57862,-25.40643]}},{"type":"Feature","properties":{"nombre":"6848 (15240) SAN ROQUE GONZALEZ DE SANTA","tipo":"school","ciudad":"SAN ANTONIO"},"geometry":{"type":"Point","coordinates":[-57.57124,-25.40613]}},{"type":"Feature","properties":{"nombre":"E.M.D. ARQ. TOMAS ROMERO PEREIRA","tipo":"school","ciudad":"SAN ANTONIO"},"geometry":{"type":"Point","coordinates":[-57.57705,-25.41339]}},{"type":"Feature","properties":{"nombre":"21 ENRIQUE LUZO PINHO","tipo":"school","ciudad":"SAN ANTONIO"},"geometry":{"type":"Point","coordinates":[-57.57607,-25.41363]}},{"type":"Feature","properties":{"nombre":"San Antonio de Padua","tipo":"school","ciudad":"SAN ANTONIO"},"geometry":{"type":"Point","coordinates":[-57.56966,-25.4129]}},{"type":"Feature","properties":{"nombre":"5581 (14797) SAN ANTONIO DE PADUA","tipo":"school","ciudad":"SAN ANTONIO"},"geometry":{"type":"Point","coordinates":[-57.57065,-25.41249]}},{"type":"Feature","properties":{"nombre":"6152 CONAVI LA MERCED","tipo":"school","ciudad":"SAN ANTONIO"},"geometry":{"type":"Point","coordinates":[-57.56748,-25.40753]}},{"type":"Feature","properties":{"nombre":"3424 (13790) SAN BLAS","tipo":"school","ciudad":"SAN ANTONIO"},"geometry":{"type":"Point","coordinates":[-57.55646,-25.41466]}},{"type":"Feature","properties":{"nombre":"6525 PRIVADO MANA","tipo":"school","ciudad":"SAN ANTONIO"},"geometry":{"type":"Point","coordinates":[-57.55378,-25.4144]}},{"type":"Feature","properties":{"nombre":"5582 (14436) SAN AGUSTIN","tipo":"school","ciudad":"SAN ANTONIO"},"geometry":{"type":"Point","coordinates":[-57.56201,-25.40598]}},{"type":"Feature","properties":{"nombre":"6569 (15321) MRIA ANGEL GARCIA DE ZU\u00d1IGA","tipo":"school","ciudad":"\u00d1EMBY"},"geometry":{"type":"Point","coordinates":[-57.55879,-25.40261]}},{"type":"Feature","properties":{"nombre":"CENTRO EDUCATIVO DEPARTAMENTAL DE \u00d0EMBY","tipo":"school","ciudad":"\u00d1EMBY"},"geometry":{"type":"Point","coordinates":[-57.556,-25.40077]}},{"type":"Feature","properties":{"nombre":"Centro Educativo Departamental de \u00d1emby","tipo":"school","ciudad":"\u00d1EMBY"},"geometry":{"type":"Point","coordinates":[-57.55597,-25.40075]}},{"type":"Feature","properties":{"nombre":"3222 Cerrito","tipo":"school","ciudad":"\u00d1EMBY"},"geometry":{"type":"Point","coordinates":[-57.55554,-25.40032]}},{"type":"Feature","properties":{"nombre":"3529 Nuestra Se\u00f1ora de la Asuncion","tipo":"school","ciudad":"\u00d1EMBY"},"geometry":{"type":"Point","coordinates":[-57.54932,-25.40358]}},{"type":"Feature","properties":{"nombre":"6831(491 J.I.PASITOS DEL SABER) M. \u00d1EMBY","tipo":"school","ciudad":"\u00d1EMBY"},"geometry":{"type":"Point","coordinates":[-57.55141,-25.39897]}},{"type":"Feature","properties":{"nombre":"6831 (491 J.I.PASITOS DEL SABER) M. \u00d1EMBY","tipo":"school","ciudad":"\u00d1EMBY"},"geometry":{"type":"Point","coordinates":[-57.55136,-25.39897]}},{"type":"Feature","properties":{"nombre":"7014 DORA GIMEMEZ","tipo":"school","ciudad":"\u00d1EMBY"},"geometry":{"type":"Point","coordinates":[-57.5461,-25.39934]}},{"type":"Feature","properties":{"nombre":"7014 Dora Gimenez","tipo":"school","ciudad":"\u00d1EMBY"},"geometry":{"type":"Point","coordinates":[-57.54613,-25.39934]}},{"type":"Feature","properties":{"nombre":"6445 (15357( PRIV. SANTA TERESITA DEL NI","tipo":"school","ciudad":"\u00d1EMBY"},"geometry":{"type":"Point","coordinates":[-57.5461,-25.40688]}},{"type":"Feature","properties":{"nombre":"7235 NUEVO AMANECER","tipo":"school","ciudad":"\u00d1EMBY"},"geometry":{"type":"Point","coordinates":[-57.5461,-25.40685]}},{"type":"Feature","properties":{"nombre":"5586 (14634) Santa Rita de Cascia","tipo":"school","ciudad":"SAN ANTONIO"},"geometry":{"type":"Point","coordinates":[-57.54617,-25.41032]}},{"type":"Feature","properties":{"nombre":"6411 AMERICA","tipo":"school","ciudad":"SAN ANTONIO"},"geometry":{"type":"Point","coordinates":[-57.55087,-25.40992]}},{"type":"Feature","properties":{"nombre":"7235 NUEVO AMANECER","tipo":"school","ciudad":"SAN ANTONIO"},"geometry":{"type":"Point","coordinates":[-57.55008,-25.40979]}},{"type":"Feature","properties":{"nombre":"6850 (14802) 14 DE MAYO","tipo":"school","ciudad":"SAN ANTONIO"},"geometry":{"type":"Point","coordinates":[-57.55352,-25.42152]}},{"type":"Feature","properties":{"nombre":"11-340 Gabino Bord\u00f3n","tipo":"school","ciudad":"SAN ANTONIO"},"geometry":{"type":"Point","coordinates":[-57.54934,-25.43203]}},{"type":"Feature","properties":{"nombre":"6454 (410) SANTA ISABEL","tipo":"school","ciudad":"SAN ANTONIO"},"geometry":{"type":"Point","coordinates":[-57.56147,-25.42345]}},{"type":"Feature","properties":{"nombre":"ACOSTA \u00d1U","tipo":"school","ciudad":"SAN ANTONIO"},"geometry":{"type":"Point","coordinates":[-57.55892,-25.42389]}},{"type":"Feature","properties":{"nombre":"382 ACOSTA \u00d1U","tipo":"school","ciudad":"SAN ANTONIO"},"geometry":{"type":"Point","coordinates":[-57.55892,-25.42392]}},{"type":"Feature","properties":{"nombre":"6866 (15455) PRIVADA SAN BLAS","tipo":"school","ciudad":"SAN ANTONIO"},"geometry":{"type":"Point","coordinates":[-57.56654,-25.41897]}},{"type":"Feature","properties":{"nombre":"6866 (15455) PRIVADA SAN BLAS","tipo":"school","ciudad":"SAN ANTONIO"},"geometry":{"type":"Point","coordinates":[-57.56651,-25.41901]}},{"type":"Feature","properties":{"nombre":"C. E. DPTAL. MPAL. JUAN PABLO II","tipo":"school","ciudad":"SAN ANTONIO"},"geometry":{"type":"Point","coordinates":[-57.57114,-25.41689]}},{"type":"Feature","properties":{"nombre":"Jard\u00edn Infante Nucleado 27 Extensi\u00f3n Escuela 171","tipo":"kindergarten","ciudad":"Buey Muerto","operador":"public"},"geometry":{"type":"Point","coordinates":[-57.58534,-25.51734]}},{"type":"Feature","properties":{"nombre":"Ciclo B\u00e1sico Orientado Secundario Rural Escuela 171","tipo":"school","ciudad":"Buey Muerto","operador":"public"},"geometry":{"type":"Point","coordinates":[-57.58519,-25.51717]}},{"type":"Feature","properties":{"nombre":"Escuela 171 Ej\u00e9rcito Argentino","tipo":"school","ciudad":"Buey Muerto","operador":"public"},"geometry":{"type":"Point","coordinates":[-57.58532,-25.5172]}},{"type":"Feature","properties":{"nombre":"Escuela Laura Vicu\u00f1a","tipo":"school","ciudad":"VILLETA"},"geometry":{"type":"Point","coordinates":[-57.56952,-25.50606]}},{"type":"Feature","properties":{"nombre":"Carlos A. Lopez","tipo":"college","ciudad":"VILLETA"},"geometry":{"type":"Point","coordinates":[-57.57028,-25.50493]}},{"type":"Feature","properties":{"nombre":"school sin nombre (VILLETA)","tipo":"school","ciudad":"VILLETA"},"geometry":{"type":"Point","coordinates":[-57.57126,-25.50503]}},{"type":"Feature","properties":{"nombre":"Colegio Tec. Dep. Dr Eusebio Ayala","tipo":"college","ciudad":"VILLETA"},"geometry":{"type":"Point","coordinates":[-57.55349,-25.51527]}},{"type":"Feature","properties":{"nombre":"5595 (14633) SAN FRANCISCO DE ASIS","tipo":"school","ciudad":"\u00d1EMBY"},"geometry":{"type":"Point","coordinates":[-57.53138,-25.43472]}},{"type":"Feature","properties":{"nombre":"Escuela N\u00ba 345 C\u00e1ndida Achucarro","tipo":"school","ciudad":"SAN ANTONIO"},"geometry":{"type":"Point","coordinates":[-57.54376,-25.43945]}},{"type":"Feature","properties":{"nombre":"Escuela N\u00ba 6420 San Juan","tipo":"school","ciudad":"\u00d1EMBY"},"geometry":{"type":"Point","coordinates":[-57.54108,-25.43312]}},{"type":"Feature","properties":{"nombre":"4275 (14801) PYKASU","tipo":"school","ciudad":"\u00d1EMBY"},"geometry":{"type":"Point","coordinates":[-57.53718,-25.42893]}},{"type":"Feature","properties":{"nombre":"5585 (14631) DIVINO REDENTOR","tipo":"school","ciudad":"\u00d1EMBY"},"geometry":{"type":"Point","coordinates":[-57.54157,-25.42389]}},